jis_mesh,unified_genre,restaurant_count,lat,lng,google_avg_rating,google_total_reviews,google_match_count,mesh_code,population,pop_working,pop_adult,pop_elderly,households,single_households,young_single,genre_diversity,genre_hhi,other_genre_count,commercial_density_rank,genre_share,neighbor_avg_restaurants,neighbor_avg_population,working_ratio,elderly_ratio,single_ratio,young_single_ratio,saturation_index,genre_saturation,nearest_station_distance,nearest_station_name,nearest_station_passengers,station_accessibility,land_price,reviews_per_shop,google_place_count,google_density,demand_score,competitor_density,opportunity_score,reason
5236670212,cafe,2,35.16733342865,136.90517693135,4.199999999999999,2398.0,2,5236670212,38.0,8.0,14.0,6.0,30.0,24.0,0.0,7,0.3216091612135633,162,1.0,0.012195121951219513,51.625,270.11538461538464,0.20512820512820512,0.15384615384615385,0.7741935483870968,0.0,2389.380530973451,29.498525073746315,0.39314392012109906,栄,160200.0,324854.45620146836,0.0,1199.0,2,29.498525073746315,0.015995872033023734,29.498525073746315,1.0,カフェの競合が少ない（2店舗）。商圏人口38人。飽和度が高い。栄駅から393m（徒歩圏）
5236670214,ramen,2,35.1704790251,136.9044031343,4.0,450.0,2,5236670214,29.0,4.0,18.0,14.0,23.0,10.0,0.0,8,0.273253346707303,159,0.9984089101034208,0.012422360248447204,61.125,173.4903846153846,0.13333333333333333,0.4666666666666667,0.4166666666666667,0.0,2376.681614349776,29.895366218236173,0.3342105561906479,栄,160200.0,368945.42916101136,0.0,225.0,10,149.47683109118086,0.011351909184726523,29.895366218236173,0.9489450414985083,ラーメンの競合が少ない（2店舗）。商圏人口29人。飽和度が高い。栄駅から334m（徒歩圏）
5236579234,ramen,1,35.1664367048,136.9043582851,4.3,363.0,1,5236579234,292.0,108.0,170.0,64.0,209.0,156.0,14.0,8,0.2604496388280172,110,0.9896579156722355,0.009009009009009009,35.5,284.5576923076923,0.36860068259385664,0.21843003412969283,0.7428571428571429,0.06666666666666667,1180.2575107296136,10.729613733905579,0.51726318880907,栄,160200.0,259532.7291573718,3790000.0,363.0,4,42.918454935622314,0.14705882352941177,10.729613733905579,0.9308811313956828,ラーメンの競合がほぼなし（1店舗）。商圏人口292人。飽和度が高い。栄駅から517m（徒歩圏）
5236670232,chinese,1,35.1710545448,136.9056055089,3.5,14.0,1,5236670232,122.0,47.0,70.0,26.0,85.0,64.0,1.0,7,0.2614449563768258,100,0.9821002386634845,0.009900990099009901,45.875,230.05769230769232,0.3821138211382114,0.21138211382113822,0.7441860465116279,0.011627906976744186,1312.3359580052493,13.123359580052492,0.2502340955983452,栄,160200.0,457408.3506242073,1980000.0,14.0,11,144.35695538057743,0.05933952528379773,13.123359580052492,0.9130417740643445,中華の競合がほぼなし（1店舗）。商圏人口122人。飽和度が高い。栄駅から250m（駅近）
5236670042,ramen,1,35.1720533584,136.8844839749,3.3,153.0,1,5236670042,24.0,10.0,23.0,13.0,16.0,9.0,0.0,8,0.3285003057035548,106,0.9872712808273667,0.009345794392523364,50.875,273.65625,0.4,0.52,0.5294117647058824,0.0,1596.3855421686746,15.06024096385542,0.10257415711725816,名古屋,287964.0,1421523.8710499222,10260000.0,153.0,13,195.78313253012047,0.008771929824561403,15.06024096385542,0.9040634922993553,ラーメンの競合がほぼなし（1店舗）。商圏人口24人。飽和度が高い。名古屋駅から103m（駅近）
5236670212,chinese,3,35.16717716583333,136.903930425,3.8,515.0,2,5236670212,38.0,8.0,14.0,6.0,30.0,24.0,0.0,7,0.3216091612135633,161,0.9992044550517104,0.018292682926829267,51.625,270.11538461538464,0.20512820512820512,0.15384615384615385,0.7741935483870968,0.0,2374.631268436578,44.24778761061947,0.4865758231095051,栄,160200.0,273110.4721479341,0.0,257.5,2,29.498525073746315,0.015995872033023734,44.24778761061947,0.9031399538316258,中華の競合が少ない（3店舗）。商圏人口38人。飽和度が高い。栄駅から487m（徒歩圏）
5236670214,chinese,3,35.170024184999995,136.90504411359998,4.1,1063.0,2,5236670214,29.0,4.0,18.0,14.0,23.0,10.0,0.0,8,0.273253346707303,158,0.9976133651551312,0.018633540372670808,61.125,173.4903846153846,0.13333333333333333,0.4666666666666667,0.4166666666666667,0.0,2361.7339312406575,44.84304932735426,0.27152235855106965,栄,160200.0,431198.81297259487,0.0,531.5,10,149.47683109118086,0.011351909184726523,44.84304932735426,0.8961534209168903,中華の競合が少ない（3店舗）。商圏人口29人。飽和度が高い。栄駅から272m（駅近）
5236670232,ramen,1,35.1727062917,136.9051890961,3.8,360.0,1,5236670232,122.0,47.0,70.0,26.0,85.0,64.0,1.0,7,0.2614449563768258,100,0.9821002386634845,0.009900990099009901,45.875,230.05769230769232,0.3821138211382114,0.21138211382113822,0.7441860465116279,0.011627906976744186,1312.3359580052493,13.123359580052492,0.29509624223150244,久屋大通,41610.0,105316.11175289049,1980000.0,360.0,11,144.35695538057743,0.05933952528379773,13.123359580052492,0.89482820537014,ラーメンの競合がほぼなし（1店舗）。商圏人口122人。飽和度が高い。久屋大通駅から295m（駅近）
5236670024,chinese,1,35.1698814,136.885193992,3.8,345.0,1,5236670024,323.4166666666667,191.58333333333334,253.33333333333334,76.83333333333333,219.58333333333334,159.25,34.416666666666664,7,0.23089248517865726,78,0.9685759745425616,0.012658227848101266,48.125,173.10416666666669,0.5905471358849217,0.23683534549190852,0.7219493766528144,0.15602568945976575,809.6185451085546,10.379724937289161,0.11522217552514306,名鉄名古屋,227395.0,1056559.3412721306,12925000.0,345.0,12,124.55669924746994,0.16326969384244927,10.379724937289161,0.8585359482821182,中華の競合がほぼなし（1店舗）。商圏人口323人。飽和度が高い。名鉄名古屋駅から115m（駅近）
5236670214,italian,4,35.17032050125,136.9043980016,3.875,2064.0,4,5236670214,29.0,4.0,18.0,14.0,23.0,10.0,0.0,8,0.273253346707303,157,0.9968178202068417,0.024844720496894408,61.125,173.4903846153846,0.13333333333333333,0.4666666666666667,0.4166666666666667,0.0,2346.7862481315397,59.79073243647235,0.33226271690636866,栄,160200.0,370607.9514479629,0.0,516.0,10,149.47683109118086,0.011351909184726523,59.79073243647235,0.8493481905865806,イタリアンは4店舗で中程度の競合。商圏人口29人。飽和度が高い。栄駅から332m（徒歩圏）
5236577211,cafe,1,35.1422368725,136.9012188812,3.7,263.0,1,5236577211,44.0,23.0,38.0,16.0,32.0,22.0,3.0,8,0.6346625083537536,66,0.9570405727923628,0.014925373134328358,22.75,633.25,0.5111111111111111,0.35555555555555557,0.6666666666666666,0.09090909090909091,964.9122807017543,14.619883040935672,0.07089648554294509,金山,139941.0,818864.118565117,2735000.0,263.0,23,336.2573099415205,0.019091847265221878,14.619883040935672,0.8483903442896669,カフェの競合がほぼなし（1店舗）。商圏人口44人。飽和度が高い。金山駅から71m（駅近）
5236670111,washoku,1,35.1678994663,136.8877943936,4.5,640.0,1,5236670111,322.0,205.0,247.0,47.0,254.0,220.0,49.0,7,0.4602249062890461,48,0.9208432776451869,0.02040816326530612,30.375,516.4791666666666,0.6346749226006192,0.14551083591331268,0.8627450980392157,0.19215686274509805,498.9604989604989,10.395010395010393,0.36074791169419745,名鉄名古屋,227395.0,493534.52121758956,4180000.0,640.0,10,103.95010395010394,0.16253869969040247,10.395010395010393,0.8401395392150175,和食の競合がほぼなし（1店舗）。商圏人口322人。飽和度が高い。名鉄名古屋駅から361m（徒歩圏）
5236670113,italian,1,35.1690057647,136.8892220071,4.0,265.0,1,5236670113,130.0,60.0,103.0,49.0,80.0,53.0,11.0,8,0.32323232323232326,65,0.9530628480509149,0.015151515151515152,46.25,387.7291666666667,0.4580152671755725,0.37404580152671757,0.654320987654321,0.13580246913580246,844.1558441558442,12.987012987012987,0.3474551259891134,国際センター,9202.0,20565.19070970233,2150000.0,265.0,3,38.96103896103896,0.06346749226006192,12.987012987012987,0.839605326577097,イタリアンの競合がほぼなし（1店舗）。商圏人口130人。飽和度が高い。国際センター駅から347m（徒歩圏）
5236670042,cafe,2,35.17202516875,136.88454966465002,3.25,442.0,2,5236670042,24.0,10.0,23.0,13.0,16.0,9.0,0.0,8,0.3285003057035548,105,0.9856801909307876,0.018691588785046728,50.875,273.65625,0.4,0.52,0.5294117647058824,0.0,1581.3253012048192,30.12048192771084,0.10302930934927663,名古屋,287964.0,1418337.0909497996,10260000.0,221.0,13,195.78313253012047,0.008771929824561403,30.12048192771084,0.8374643676531981,カフェの競合が少ない（2店舗）。商圏人口24人。飽和度が高い。名古屋駅から103m（駅近）
5236577214,other,2,35.14442003415,136.90431797715001,3.9000000000000004,850.0,2,5236577214,1227.0,622.0,818.0,226.0,759.0,470.0,60.0,5,0.5734618916437099,64,0.9486873508353222,0.030303030303030304,18.75,591.25,0.506514657980456,0.18403908794788273,0.618421052631579,0.07894736842105263,342.79592929833956,10.712372790573111,0.2657005242842003,金山,139941.0,382665.5711634866,700000.0,425.0,11,58.918050348152114,0.6295149638802889,10.712372790573111,0.834180768145347,"その他の競合が少ない（2店舗）。商圏人口1,227人。飽和度が高い。金山駅から266m（駅近）"
5236670113,chinese,1,35.1697726531,136.8904888136,4.5,91.0,1,5236670113,130.0,60.0,103.0,49.0,80.0,53.0,11.0,8,0.32323232323232326,65,0.9530628480509149,0.015151515151515152,46.25,387.7291666666667,0.4580152671755725,0.37404580152671757,0.654320987654321,0.13580246913580246,844.1558441558442,12.987012987012987,0.28078908005479103,国際センター,9202.0,24165.60894728373,2150000.0,91.0,3,38.96103896103896,0.06346749226006192,12.987012987012987,0.8303653197071963,中華の競合がほぼなし（1店舗）。商圏人口130人。飽和度が高い。国際センター駅から281m（駅近）
5236577211,chinese,1,35.1424368735,136.9021868454,3.6,791.0,1,5236577211,44.0,23.0,38.0,16.0,32.0,22.0,3.0,8,0.6346625083537536,66,0.9570405727923628,0.014925373134328358,22.75,633.25,0.5111111111111111,0.35555555555555557,0.6666666666666666,0.09090909090909091,964.9122807017543,14.619883040935672,0.09398240719579184,金山,139941.0,721410.7816424489,2735000.0,791.0,23,336.2573099415205,0.019091847265221878,14.619883040935672,0.8298811571562673,中華の競合がほぼなし（1店舗）。商圏人口44人。飽和度が高い。金山駅から94m（駅近）
5236671221,izakaya,1,35.1751397232,136.9091250545,4.1,299.0,1,5236671221,1215.0,765.0,922.0,179.0,793.0,515.0,88.0,5,0.25,11,0.6961018297533811,0.08333333333333333,9.75,787.75,0.6291118421052632,0.14720394736842105,0.6486146095717884,0.11083123425692695,59.299191374663074,5.390835579514825,0.17459440026610087,久屋大通,41610.0,151532.5875534135,1590000.0,299.0,6,32.34501347708895,0.6233230134158927,5.390835579514825,0.8248173557078241,"居酒屋の競合がほぼなし（1店舗）。商圏人口1,215人。飽和度が高い。久屋大通駅から175m（駅近）"
5236670312,izakaya,1,35.1681385242,136.9184664418,4.0,7.0,1,5236670312,884.0,352.0,419.0,73.0,775.0,703.0,97.0,6,0.20661157024793386,10,0.6718377088305489,0.09090909090909091,20.5,759.0,0.3977401129943503,0.08248587570621468,0.9059278350515464,0.125,65.61679790026247,6.561679790026246,0.336348634587274,新栄町,25718.0,58939.10960515713,467000.0,7.0,2,13.123359580052492,0.45252837977296184,6.561679790026246,0.819035125997568,居酒屋の競合がほぼなし（1店舗）。商圏人口884人。飽和度が高い。新栄町駅から336m（徒歩圏）
5236670043,yakiniku,1,35.1736542726,136.883858971,4.2,670.0,1,5236670043,51.0,22.0,40.0,18.0,33.0,20.0,0.0,7,0.4359504132231405,43,0.9053301511535402,0.022727272727272728,36.375,355.1041666666667,0.4230769230769231,0.34615384615384615,0.5882352941176471,0.0,622.2865412445732,14.471780028943561,0.26718793795619566,名古屋,287964.0,784241.447589036,4335000.0,670.0,11,159.18958031837917,0.022703818369453045,14.471780028943561,0.8179591412184204,焼肉の競合がほぼなし（1店舗）。商圏人口51人。飽和度が高い。名古屋駅から267m（駅近）
5236671311,izakaya,1,35.1754548019,136.913791582,4.6,23.0,1,5236671311,1543.0,1047.0,1288.0,285.0,898.0,514.0,114.0,3,0.5,5,0.5250596658711217,0.16666666666666666,8.125,1287.375,0.6781088082901554,0.18458549222797926,0.5717463848720801,0.12680756395995552,22.904260192395785,4.580852038479157,0.22956813343769636,高岳,15676.0,47565.27834316084,0.0,23.0,7,32.0659642693541,0.7925696594427245,4.580852038479157,0.817562093089636,"居酒屋の競合がほぼなし（1店舗）。商圏人口1,543人。飽和度が高い。高岳駅から230m（駅近）"
5236670122,cafe,1,35.1681391561,136.8989198069,4.3,85.0,1,5236670122,560.0,336.0,399.0,76.0,318.0,163.0,8.0,6,0.42684229263082946,52,0.933969769291965,0.018867924528301886,24.0,360.375,0.5989304812834224,0.1354723707664884,0.5109717868338558,0.025078369905956112,433.33333333333337,8.333333333333334,0.1852240785225689,伏見,77082.0,270250.6758871016,1270000.0,85.0,5,41.66666666666667,0.2853457172342621,8.333333333333334,0.8173095923004079,カフェの競合がほぼなし（1店舗）。商圏人口560人。飽和度が高い。伏見駅から185m（駅近）
5236577114,izakaya,1,35.1448010746,136.8918529351,4.1,101.0,1,5236577114,1168.0,755.0,952.0,234.0,692.0,406.0,104.0,3,0.42857142857142855,6,0.5624502784407319,0.14285714285714285,1.375,413.625,0.6458511548331908,0.20017108639863132,0.5858585858585859,0.15007215007215008,33.1858407079646,5.530973451327434,0.25395195702726603,尾頭橋,6335.0,17897.909233800325,0.0,101.0,5,27.654867256637164,0.5990712074303406,5.530973451327434,0.8146427789382594,"居酒屋の競合がほぼなし（1店舗）。商圏人口1,168人。飽和度が高い。尾頭橋駅から254m（駅近）"
5236577121,izakaya,1,35.1430674327,136.893910597,4.4,78.0,1,5236577121,1167.0,750.0,941.0,218.0,767.0,522.0,126.0,5,0.22448979591836732,6,0.5624502784407319,0.14285714285714285,3.0,528.625,0.6421232876712328,0.18664383561643835,0.6796875,0.1640625,33.20420586607637,5.534034311012729,0.5083782427109484,尾頭橋,6335.0,10412.92990980592,0.0,78.0,4,22.136137244050914,0.5985552115583075,5.534034311012729,0.8144140425684867,"居酒屋の競合がほぼなし（1店舗）。商圏人口1,167人。飽和度が高い。尾頭橋駅から508m（徒歩圏）"
5236579023,izakaya,1,35.1619630688,136.8826295025,4.5,81.0,1,5236579023,40.0,30.0,30.0,0.0,25.0,17.0,1.0,4,0.33333333333333337,5,0.5250596658711217,0.16666666666666666,0.75,18.5,0.7317073170731707,0.0,0.6538461538461539,0.038461538461538464,73.52941176470588,14.705882352941176,0.07791177399898626,ささしまライブ,4700.0,26417.58830433999,1460000.0,81.0,12,176.47058823529412,0.017027863777089782,14.705882352941176,0.8141532512993546,居酒屋の競合がほぼなし（1店舗）。商圏人口40人。飽和度が高い。ささしまライブ駅から78m（駅近）
5236670132,izakaya,1,35.1712969694,136.8923172104,4.0,65.0,1,5236670132,336.0,214.0,255.0,49.0,244.0,189.0,25.0,5,0.2839506172839506,8,0.6193317422434368,0.1111111111111111,24.25,466.125,0.6350148367952523,0.14540059347181009,0.7714285714285715,0.10204081632653061,81.9672131147541,10.245901639344263,0.2829440888114649,国際センター,9202.0,24029.617557382968,0.0,65.0,1,10.245901639344263,0.1697626418988648,10.245901639344263,0.8140105988165319,居酒屋の競合がほぼなし（1店舗）。商圏人口336人。飽和度が高い。国際センター駅から283m（駅近）
5236670243,izakaya,1,35.1734671405,136.9093417632,4.4,896.0,1,5236670243,164.0,60.0,125.0,69.0,115.0,79.0,4.0,6,0.21875,7,0.5898965791567223,0.125,29.5,694.125,0.36363636363636365,0.41818181818181815,0.6810344827586207,0.034482758620689655,87.06467661691542,12.437810945273633,0.11338911306904133,久屋大通,41610.0,194995.8899099844,0.0,896.0,4,49.75124378109453,0.08101135190918472,12.437810945273633,0.8137354674813317,居酒屋の競合がほぼなし（1店舗）。商圏人口164人。飽和度が高い。久屋大通駅から113m（駅近）
5236670144,izakaya,1,35.1749469857,136.8985426478,4.1,67.0,1,5236670144,836.0,478.0,544.0,82.0,595.0,450.0,58.0,4,0.3877551020408163,6,0.5624502784407319,0.14285714285714285,14.0,545.2,0.5710872162485066,0.0979689366786141,0.7550335570469798,0.09731543624161074,40.65040650406504,6.775067750677507,0.20927367555340198,丸の内,29788.0,96315.98921795894,2320000.0,67.0,4,27.100271002710027,0.4277605779153767,6.775067750677507,0.812566908658899,居酒屋の競合がほぼなし（1店舗）。商圏人口836人。飽和度が高い。丸の内駅から209m（駅近）
5236670333,izakaya,1,35.1731650834,136.9146801992,4.3,72.0,1,5236670333,1117.0,888.0,954.0,84.0,888.0,742.0,226.0,3,0.3888888888888889,5,0.5250596658711217,0.16666666666666666,10.25,1017.75,0.7942754919499105,0.07513416815742398,0.8346456692913385,0.2542182227221597,28.457598178713717,5.691519635742743,0.13346505999981417,高岳,15676.0,67144.95094046397,0.0,72.0,4,22.766078542970973,0.5727554179566563,5.691519635742743,0.8123846901523958,"居酒屋の競合がほぼなし（1店舗）。商圏人口1,117人。飽和度が高い。高岳駅から133m（駅近）"
5236672543,izakaya,1,35.1909818525,136.9446216714,5.0,6.0,1,5236672543,649.0,494.0,561.0,90.0,361.0,195.0,69.0,2,0.5,1,0.22991249005568815,0.5,0.625,89.625,0.76,0.13846153846153847,0.5386740331491713,0.19060773480662985,7.757951900698215,7.757951900698215,0.06601681610394544,ナゴヤドーム前矢田,12740.0,76739.21412890672,0.0,6.0,4,31.03180760279286,0.33126934984520123,7.757951900698215,0.8114028371167349,居酒屋の競合がほぼなし（1店舗）。商圏人口649人。ナゴヤドーム前矢田駅から66m（駅近）
5236671122,izakaya,1,35.1751780673,136.8984073734,4.1,67.0,1,5236671122,795.0,400.0,526.0,161.0,498.0,325.0,38.0,5,0.22448979591836732,6,0.5624502784407319,0.14285714285714285,5.0,549.275,0.5025125628140703,0.2022613065326633,0.6513026052104208,0.07615230460921844,41.81184668989547,6.968641114982578,0.2328353542918974,丸の内,29788.0,89497.70394245996,0.0,67.0,3,20.905923344947734,0.4066047471620227,6.968641114982578,0.810960502419654,居酒屋の競合がほぼなし（1店舗）。商圏人口795人。飽和度が高い。丸の内駅から233m（駅近）
5236579041,izakaya,1,35.1632290706,136.8840315569,4.2,102.0,1,5236579041,148.0,95.0,119.0,40.0,110.0,87.0,35.0,4,0.3333333333333333,5,0.5250596658711217,0.16666666666666666,2.25,174.0,0.6375838926174496,0.2684563758389262,0.7837837837837838,0.3153153153153153,63.451776649746186,12.690355329949238,0.2604458431491036,ささしまライブ,4700.0,13039.406860507968,0.0,102.0,3,38.07106598984771,0.07275541795665634,12.690355329949238,0.8109519101238309,居酒屋の競合がほぼなし（1店舗）。商圏人口148人。飽和度が高い。ささしまライブ駅から260m（駅近）
5236673431,izakaya,1,35.1959197287,136.9261917041,4.9,14.0,1,5236673431,729.0,469.0,608.0,166.0,362.0,154.0,35.0,2,0.5,1,0.22991249005568815,0.5,1.25,504.75,0.6424657534246575,0.2273972602739726,0.42424242424242425,0.09641873278236915,7.304601899196492,7.304601899196492,0.3264247336296829,平安通,10296.0,24144.940919260287,269000.0,14.0,5,36.523009495982464,0.37254901960784315,7.304601899196492,0.8102914270557634,居酒屋の競合がほぼなし（1店舗）。商圏人口729人。平安通駅から326m（徒歩圏）
5236674114,izakaya,1,35.2021023359,136.8912181302,4.4,204.0,1,5236674114,724.0,458.0,623.0,197.0,415.0,241.0,45.0,4,0.28,4,0.48766905330151156,0.2,0.5,299.0,0.6317241379310344,0.2717241379310345,0.5793269230769231,0.10817307692307693,29.325513196480934,7.331378299120233,0.26441316427765726,庄内通,12982.0,35624.39909582582,0.0,204.0,25,183.28445747800583,0.369969040247678,7.331378299120233,0.8099334465429843,居酒屋の競合がほぼなし（1店舗）。商圏人口724人。飽和度が高い。庄内通駅から264m（駅近）
5236579331,izakaya,1,35.1636041754,136.9127201615,4.3,49.0,1,5236579331,1344.0,550.0,635.0,110.0,1103.0,956.0,129.0,4,0.28,4,0.48766905330151156,0.2,9.25,824.125,0.40892193308550184,0.08178438661710037,0.8659420289855072,0.11684782608695653,20.161290322580644,5.040322580645161,0.33967835248632433,矢場町,47990.0,109147.97084874145,0.0,49.0,4,20.161290322580644,0.6898864809081527,5.040322580645161,0.8080416762583751,"居酒屋の競合がほぼなし（1店舗）。商圏人口1,344人。飽和度が高い。矢場町駅から340m（徒歩圏）"
5236670423,other,1,35.169518684,136.9313649933,4.5,4.0,1,5236670423,823.0,522.0,722.0,214.0,589.0,430.0,110.0,5,0.578125,15,0.7704852824184566,0.0625,8.75,761.75,0.633495145631068,0.25970873786407767,0.7288135593220338,0.1864406779661017,102.52904989747095,6.83526999316473,0.09623556658877813,千種,45504.0,231884.57011646623,0.0,4.0,6,41.01161995898838,0.42105263157894735,6.83526999316473,0.8077027536110253,その他の競合がほぼなし（1店舗）。商圏人口823人。飽和度が高い。千種駅から96m（駅近）
5236568844,izakaya,1,35.1579543866,136.861150126,4.6,176.0,1,5236568844,419.0,292.0,362.0,81.0,229.0,124.0,30.0,2,0.5,1,0.22991249005568815,0.5,0.375,73.875,0.6952380952380952,0.19285714285714287,0.5391304347826087,0.13043478260869565,9.442870632672333,9.442870632672333,0.611376244776709,烏森,4779.0,6717.963995972428,0.0,176.0,5,47.214353163361665,0.21259029927760578,9.442870632672333,0.8072154762227542,居酒屋の競合がほぼなし（1店舗）。商圏人口419人。烏森駅から611m（徒歩圏）
5236673231,izakaya,1,35.1974808586,136.9002089056,4.2,71.0,1,5236673231,796.0,528.0,705.0,202.0,424.0,226.0,76.0,3,0.375,3,0.43595863166268894,0.25,0.125,107.375,0.6624843161856964,0.2534504391468005,0.5317647058823529,0.17882352941176471,20.891364902506965,6.963788300835654,0.8762673873130864,名城公園,9470.0,9700.211359168343,227000.0,71.0,2,13.927576601671309,0.4071207430340557,6.963788300835654,0.8066247714981475,居酒屋の競合がほぼなし（1店舗）。商圏人口796人。飽和度が高い
5236577211,ramen,1,35.1417272194,136.901681915,3.4,621.0,1,5236577211,44.0,23.0,38.0,16.0,32.0,22.0,3.0,8,0.6346625083537536,66,0.9570405727923628,0.014925373134328358,22.75,633.25,0.5111111111111111,0.35555555555555557,0.6666666666666666,0.09090909090909091,964.9122807017543,14.619883040935672,0.13183828015767102,金山,139941.0,603614.7261997779,2735000.0,621.0,23,336.2573099415205,0.019091847265221878,14.619883040935672,0.8064221869942911,ラーメンの競合がほぼなし（1店舗）。商圏人口44人。飽和度が高い。金山駅から132m（駅近）
5236578221,izakaya,1,35.1515181664,136.9062889371,4.5,47.0,1,5236578221,892.0,524.0,646.0,153.0,473.0,232.0,63.0,3,0.3333333333333333,2,0.34805091487669054,0.3333333333333333,1.75,821.125,0.5867861142217246,0.1713325867861142,0.48945147679324896,0.13291139240506328,13.054830287206267,6.527415143603133,0.17823388733999962,東別院,13128.0,47183.3252430452,0.0,47.0,5,32.637075718015666,0.456656346749226,6.527415143603133,0.8061965447942347,居酒屋の競合がほぼなし（1店舗）。商圏人口892人。東別院駅から178m（駅近）
5236577442,izakaya,1,35.1476906862,136.9347238285,4.3,90.0,1,5236577442,902.0,607.0,720.0,144.0,565.0,376.0,77.0,4,0.25,3,0.43595863166268894,0.25,2.125,720.625,0.6722037652270211,0.15946843853820597,0.6643109540636042,0.13604240282685512,19.455252918287936,6.485084306095979,0.21709085309583304,御器所,20380.0,64271.800340581365,0.0,90.0,5,32.425421530479895,0.46181630546955627,6.485084306095979,0.8055135038925516,居酒屋の競合がほぼなし（1店舗）。商圏人口902人。御器所駅から217m（駅近）
5236579231,izakaya,1,35.1639563739,136.9020460761,4.2,166.0,1,5236579231,391.0,210.0,256.0,51.0,275.0,194.0,16.0,4,0.28,4,0.48766905330151156,0.2,21.25,533.375,0.5357142857142857,0.13010204081632654,0.7028985507246377,0.057971014492753624,38.797284190106694,9.699321047526674,0.5036946245536342,大須観音,14730.0,24399.75345298331,0.0,166.0,2,19.398642095053347,0.19814241486068113,9.699321047526674,0.8055054444616239,居酒屋の競合がほぼなし（1店舗）。商圏人口391人。飽和度が高い。大須観音駅から504m（徒歩圏）
5236576443,izakaya,1,35.1404589522,136.9325240045,4.1,108.0,1,5236576443,1047.0,637.0,781.0,180.0,567.0,295.0,48.0,3,0.375,3,0.43595863166268894,0.25,1.5,494.625,0.607824427480916,0.1717557251908397,0.5193661971830986,0.08450704225352113,17.78304682868998,5.927682276229993,0.11136583134745032,桜山,21106.0,99855.30710167265,0.0,108.0,11,65.20450503852993,0.5366357069143447,5.927682276229993,0.805460989067927,"居酒屋の競合がほぼなし（1店舗）。商圏人口1,047人。桜山駅から111m（駅近）"
5236661944,izakaya,1,35.1823613956,136.874782777,4.4,61.0,1,5236661944,653.0,459.0,586.0,134.0,475.0,366.0,93.0,3,0.3333333333333333,2,0.34805091487669054,0.3333333333333333,0.5,241.25,0.7018348623853211,0.20489296636085627,0.7689075630252101,0.1953781512605042,15.467904098994586,7.733952049497293,0.21563239700884626,栄生,11969.0,37920.695446432714,355000.0,61.0,16,123.74323279195669,0.3333333333333333,7.733952049497293,0.8052561227183317,居酒屋の競合がほぼなし（1店舗）。商圏人口653人。栄生駅から216m（駅近）
5236674134,izakaya,1,35.2063801891,136.8914360111,4.4,291.0,1,5236674134,918.0,574.0,770.0,219.0,496.0,299.0,53.0,2,0.5,1,0.22991249005568815,0.5,0.25,159.75,0.6245919477693145,0.2383025027203482,0.6016096579476862,0.10663983903420524,6.418485237483954,6.418485237483954,0.21471085705701567,庄内通,12982.0,41250.56288619897,210000.0,291.0,3,19.255455712451862,0.47007223942208465,6.418485237483954,0.8051628709784522,居酒屋の競合がほぼなし（1店舗）。商圏人口918人。庄内通駅から215m（駅近）
5236577332,izakaya,1,35.1469736555,136.916555988,4.4,29.0,1,5236577332,357.0,221.0,315.0,104.0,183.0,88.0,33.0,2,0.5,1,0.22991249005568815,0.5,0.5,300.25,0.61731843575419,0.2905027932960894,0.4782608695652174,0.1793478260869565,10.030090270812437,10.030090270812437,0.9993899894902785,鶴舞,32755.0,29793.795025536423,0.0,29.0,1,10.030090270812437,0.18059855521155832,10.030090270812437,0.8050976488618502,居酒屋の競合がほぼなし（1店舗）。商圏人口357人
5236660932,izakaya,1,35.1713988465,136.8673540987,4.4,75.0,1,5236660932,1015.0,586.0,871.0,307.0,558.0,354.0,82.0,2,0.5,1,0.22991249005568815,0.5,1.125,635.0,0.5767716535433071,0.3021653543307087,0.6332737030411449,0.14669051878354203,6.042296072507552,6.042296072507552,0.5225577603518444,中村日赤,8516.0,13679.052037174995,0.0,75.0,2,12.084592145015105,0.5201238390092879,6.042296072507552,0.8050728634027107,"居酒屋の競合がほぼなし（1店舗）。商圏人口1,015人。中村日赤駅から523m（徒歩圏）"
5236673121,izakaya,1,35.1918677776,136.8958508776,4.4,62.0,1,5236673121,1027.0,636.0,840.0,228.0,499.0,205.0,26.0,2,0.5,1,0.22991249005568815,0.5,2.125,300.375,0.6186770428015564,0.22178988326848248,0.41,0.052,5.9988002399520095,5.9988002399520095,0.4587880601744381,浄心,12744.0,22806.500189037106,0.0,62.0,6,35.99280143971205,0.5263157894736842,5.9988002399520095,0.8049658927354372,"居酒屋の競合がほぼなし（1店舗）。商圏人口1,027人。浄心駅から459m（徒歩圏）"
5236670522,izakaya,1,35.1671990546,136.9470709356,4.4,974.0,1,5236670522,1304.0,730.0,1116.0,408.0,762.0,408.0,56.0,2,0.5,1,0.22991249005568815,0.5,4.25,685.375,0.5593869731800766,0.31264367816091954,0.5347313237221494,0.07339449541284404,5.1440329218107,5.1440329218107,0.07501903340085062,池下,22894.0,130808.63009662087,0.0,974.0,4,20.5761316872428,0.6692466460268318,5.1440329218107,0.804746677939903,"居酒屋の競合がほぼなし（1店舗）。商圏人口1,304人。池下駅から75m（駅近）"
5236672134,izakaya,1,35.1910632972,136.8906591359,4.2,94.0,1,5236672134,844.0,512.0,692.0,199.0,429.0,241.0,72.0,4,0.25,3,0.43595863166268894,0.25,3.125,642.75,0.6059171597633136,0.23550295857988165,0.5604651162790698,0.16744186046511628,20.21563342318059,6.738544474393531,0.12778002880541414,浄心,12744.0,55948.71537612645,0.0,94.0,2,13.477088948787062,0.43188854489164086,6.738544474393531,0.8043489138292937,居酒屋の競合がほぼなし（1店舗）。商圏人口844人。飽和度が高い。浄心駅から128m（駅近）
5236579424,izakaya,1,35.1610725356,136.9360918343,4.3,27.0,1,5236579424,846.0,529.0,699.0,186.0,558.0,422.0,132.0,3,0.3333333333333333,2,0.34805091487669054,0.3333333333333333,1.25,523.375,0.6245572609208973,0.21959858323494688,0.7549194991055456,0.23613595706618962,13.458950201884251,6.729475100942126,0.2623391083800427,吹上,14092.0,38891.74442969451,0.0,27.0,2,13.458950201884251,0.4329205366357069,6.729475100942126,0.8041478078293917,居酒屋の競合がほぼなし（1店舗）。商圏人口846人。吹上駅から262m（駅近）
5236670443,izakaya,1,35.1740723456,136.9318325648,4.3,43.0,1,5236670443,960.0,671.0,833.0,186.0,596.0,381.0,80.0,3,0.3333333333333333,2,0.34805091487669054,0.3333333333333333,2.375,555.25,0.6982310093652445,0.1935483870967742,0.6381909547738693,0.13400335008375208,12.5,6.25,0.21739004475128157,車道,12282.0,38696.86590083386,0.0,43.0,11,68.75,0.4917440660474716,6.25,0.8040371324047069,居酒屋の競合がほぼなし（1店舗）。商圏人口960人。車道駅から217m（駅近）
5236578212,izakaya,1,35.1502338465,136.9054290584,4.3,122.0,1,5236578212,720.0,478.0,603.0,137.0,405.0,210.0,22.0,2,0.5,1,0.22991249005568815,0.5,1.625,708.875,0.6629680998613038,0.1900138696255201,0.5172413793103449,0.054187192118226604,7.352941176470588,7.352941176470588,0.06016648269621273,東別院,13128.0,81964.71433352157,0.0,122.0,1,7.352941176470588,0.36790505675954593,7.352941176470588,0.8039561445532553,居酒屋の競合がほぼなし（1店舗）。商圏人口720人。東別院駅から60m（駅近）
5236576423,izakaya,1,35.1372382403,136.933912612,4.1,259.0,1,5236576423,1241.0,724.0,896.0,210.0,697.0,391.0,85.0,4,0.25,3,0.43595863166268894,0.25,0.375,291.0,0.5829307568438004,0.16908212560386474,0.5601719197707736,0.12177650429799428,15.94896331738437,5.31632110579479,0.2785139362007903,桜山,21106.0,55760.166222265325,0.0,259.0,16,85.06113769271664,0.6367389060887513,5.31632110579479,0.803640595765183,"居酒屋の競合がほぼなし（1店舗）。商圏人口1,241人。桜山駅から279m（駅近）"
5236576223,izakaya,1,35.1354197836,136.909126775,4.2,81.0,1,5236576223,234.0,158.0,185.0,34.0,127.0,71.0,21.0,3,0.3333333333333333,2,0.34805091487669054,0.3333333333333333,0.625,214.375,0.6723404255319149,0.14468085106382977,0.5546875,0.1640625,22.88329519450801,11.441647597254004,0.6124433833029629,熱田,5149.0,7227.240957911198,0.0,81.0,25,286.0411899313501,0.11713106295149639,11.441647597254004,0.8030657637343799,居酒屋の競合がほぼなし（1店舗）。商圏人口234人。飽和度が高い。熱田駅から612m（徒歩圏）
5236674541,izakaya,1,35.2056815567,136.943932029,4.2,118.0,1,5236674541,197.0,135.0,150.0,31.0,85.0,32.0,2.0,2,0.5,1,0.22991249005568815,0.5,0.0,0.0,0.6818181818181818,0.15656565656565657,0.37209302325581395,0.023255813953488372,11.947431302270012,11.947431302270012,0.6845355327972706,新守山,13389.0,17066.14861950403,0.0,118.0,7,83.63201911589009,0.09803921568627451,11.947431302270012,0.8030328378449252,居酒屋の競合がほぼなし（1店舗）。商圏人口197人。新守山駅から685m（徒歩圏）
5236578441,izakaya,1,35.155136713,136.9317338175,4.2,5.0,1,5236578441,1020.0,605.0,864.0,310.0,483.0,247.0,81.0,2,0.5,1,0.22991249005568815,0.5,0.75,196.5,0.5925563173359452,0.3036238981390793,0.5103305785123967,0.16735537190082644,6.024096385542169,6.024096385542169,0.5238177106472989,吹上,14092.0,22589.932538750083,370000.0,5.0,1,6.024096385542169,0.522703818369453,6.024096385542169,0.8030151834017594,"居酒屋の競合がほぼなし（1店舗）。商圏人口1,020人。吹上駅から524m（徒歩圏）"
5236670311,italian,1,35.16863335,136.9136504534,4.1,1152.0,1,5236670311,335.0,127.0,135.0,14.0,283.0,248.0,32.0,7,0.2687427912341407,50,0.930389817024662,0.0196078431372549,28.75,659.5576923076923,0.37797619047619047,0.041666666666666664,0.8732394366197183,0.11267605633802817,512.8205128205128,10.256410256410255,0.47733153942406026,栄町,33857.0,58643.94665459535,0.0,1152.0,6,61.53846153846153,0.1692466460268318,10.256410256410255,0.8027410433906925,イタリアンの競合がほぼなし（1店舗）。商圏人口335人。飽和度が高い。栄町駅から477m（徒歩圏）
5236578224,izakaya,1,35.1530870226,136.9122175317,4.2,31.0,1,5236578224,1945.0,920.0,1246.0,347.0,1174.0,709.0,67.0,2,0.5,1,0.22991249005568815,0.5,3.625,1084.75,0.4727646454265159,0.17831449126413154,0.603404255319149,0.05702127659574468,3.8684719535783363,3.8684719535783363,0.5213200360169635,鶴舞,32755.0,52718.40291837251,0.0,31.0,5,19.342359767891683,1.0,3.8684719535783363,0.8027292123179107,"居酒屋の競合がほぼなし（1店舗）。商圏人口1,945人。飽和度が低く参入余地あり。鶴舞駅から521m（徒歩圏）"
5236671543,izakaya,1,35.1820839738,136.9446581034,3.7,10.0,1,5236671543,635.0,364.0,541.0,203.0,324.0,149.0,28.0,4,0.28,4,0.48766905330151156,0.2,0.5,269.625,0.5723270440251572,0.3191823899371069,0.4584615384615385,0.08615384615384615,31.372549019607842,7.8431372549019605,0.9585936616509687,ナゴヤドーム前矢田,12740.0,12034.83495275313,0.0,10.0,11,86.27450980392156,0.3240454076367389,7.8431372549019605,0.8025681400384201,居酒屋の競合がほぼなし（1店舗）。商圏人口635人。飽和度が高い
5236674231,izakaya,1,35.2059329681,136.9007446625,4.1,206.0,1,5236674231,1264.0,609.0,1187.0,598.0,832.0,545.0,8.0,2,0.5,1,0.22991249005568815,0.5,0.375,91.875,0.48142292490118577,0.4727272727272727,0.6542617046818727,0.009603841536614645,5.2521008403361344,5.2521008403361344,0.8961345631807044,庄内通,12982.0,13032.375825358238,0.0,206.0,10,52.52100840336134,0.6486068111455109,5.2521008403361344,0.8020145908215103,"居酒屋の競合がほぼなし（1店舗）。商圏人口1,264人"
5236565934,izakaya,1,35.1317044837,136.8683126776,4.1,80.0,1,5236565934,710.0,446.0,566.0,146.0,338.0,139.0,18.0,2,0.5,1,0.22991249005568815,0.5,0.375,106.5,0.6272855133614628,0.20534458509142053,0.41002949852507375,0.05309734513274336,7.4074074074074066,7.4074074074074066,0.5948917402868144,南荒子,2500.0,3597.6827109329765,0.0,80.0,8,59.25925925925925,0.3627450980392157,7.4074074074074066,0.8019916962758107,居酒屋の競合がほぼなし（1店舗）。商圏人口710人。南荒子駅から595m（徒歩圏）
5236579141,izakaya,1,35.1632421109,136.8948095087,4.1,365.0,1,5236579141,958.0,536.0,664.0,143.0,578.0,359.0,39.0,3,0.3333333333333333,2,0.34805091487669054,0.3333333333333333,4.875,544.375,0.5589155370177268,0.14911366006256518,0.6200345423143351,0.06735751295336788,12.51564455569462,6.25782227784731,0.41321353487996,大須観音,14730.0,28701.503368272093,880000.0,365.0,2,12.51564455569462,0.4907120743034056,6.25782227784731,0.8016702238903632,居酒屋の競合がほぼなし（1店舗）。商圏人口958人。大須観音駅から413m（徒歩圏）
5236577122,izakaya,1,35.1426903996,136.899888147,3.5,67.0,1,5236577122,732.0,451.0,585.0,140.0,553.0,434.0,75.0,4,0.2777777777777778,5,0.5250596658711217,0.16666666666666666,18.0,337.25,0.6152796725784447,0.19099590723055934,0.7833935018050542,0.13537906137184116,36.44314868804665,7.28862973760933,0.06298796669706425,金山,139941.0,858597.1273578728,520000.0,67.0,3,21.86588921282799,0.37409700722394224,7.28862973760933,0.8013317408687871,居酒屋の競合がほぼなし（1店舗）。商圏人口732人。飽和度が高い。金山駅から63m（駅近）
5236672411,izakaya,1,35.184981231,136.9255174387,4.0,247.0,1,5236672411,929.0,537.0,760.0,254.0,449.0,207.0,30.0,3,0.3333333333333333,2,0.34805091487669054,0.3333333333333333,1.0,469.5,0.5774193548387097,0.2731182795698925,0.46,0.06666666666666667,12.746972594008923,6.373486297004462,0.526898335887673,森下,110281.0,175915.2859192787,0.0,247.0,1,6.373486297004462,0.4757481940144479,6.373486297004462,0.8010349880397977,居酒屋の競合がほぼなし（1店舗）。商圏人口929人。森下駅から527m（徒歩圏）
5236578422,izakaya,1,35.1501634745,136.9352581367,4.0,1066.0,1,5236578422,956.0,610.0,788.0,217.0,492.0,234.0,50.0,3,0.3333333333333333,2,0.34805091487669054,0.3333333333333333,2.625,742.375,0.6374085684430512,0.22675026123301986,0.4746450304259635,0.10141987829614604,12.531328320802004,6.265664160401002,0.11983940698624192,御器所,20380.0,92704.03463777278,0.0,1066.0,1,6.265664160401002,0.48968008255933954,6.265664160401002,0.8008627005674005,居酒屋の競合がほぼなし（1店舗）。商圏人口956人。御器所駅から120m（駅近）
5236660933,izakaya,1,35.1741320505,136.8633957325,4.0,189.0,1,5236660933,814.0,525.0,662.0,170.0,452.0,269.0,77.0,2,0.5,1,0.22991249005568815,0.5,1.25,496.375,0.6441717791411042,0.2085889570552147,0.5938189845474614,0.16997792494481237,6.87757909215956,6.87757909215956,0.24612661141792888,中村日赤,8516.0,24603.713551852266,0.0,189.0,4,27.51031636863824,0.41640866873065013,6.87757909215956,0.8008542404242521,居酒屋の競合がほぼなし（1店舗）。商圏人口814人。中村日赤駅から246m（駅近）
5236577221,izakaya,1,35.1424872535,136.9065939607,4.1,138.0,1,5236577221,956.0,565.0,792.0,254.0,585.0,355.0,66.0,2,0.5,1,0.22991249005568815,0.5,13.5,418.5,0.5903866248693835,0.26541274817136884,0.60580204778157,0.11262798634812286,6.265664160401002,6.265664160401002,0.46740756287097224,金山,139941.0,246632.24313036236,230000.0,138.0,0,0.0,0.48968008255933954,6.265664160401002,0.8005937701803973,居酒屋の競合がほぼなし（1店舗）。商圏人口956人。金山駅から467m（徒歩圏）
5236578334,izakaya,1,35.1568647887,136.9178894018,4.0,173.0,1,5236578334,638.0,325.0,387.0,71.0,440.0,327.0,64.0,3,0.3333333333333333,2,0.34805091487669054,0.3333333333333333,4.875,843.9134615384615,0.5086071987480438,0.1111111111111111,0.7414965986394558,0.14512471655328799,15.64945226917058,7.82472613458529,0.06472503150782542,鶴舞,32755.0,198846.5244181419,0.0,173.0,7,54.77308294209703,0.325593395252838,7.82472613458529,0.8005878550127132,居酒屋の競合がほぼなし（1店舗）。商圏人口638人。鶴舞駅から65m（駅近）
5236670222,chinese,2,35.16777724735,136.9100334377,3.85,642.0,2,5236670222,248.46153846153845,142.46153846153845,175.84615384615384,38.30769230769231,174.84615384615384,126.46153846153847,15.538461538461538,7,0.28576177285318555,93,0.9781225139220366,0.021052631578947368,22.875,370.99038461538464,0.5710761640456368,0.15356151711378355,0.7191601049868767,0.08836395450568679,1046.7532467532467,22.51082251082251,0.30605367467449696,栄,160200.0,394529.12260533153,2306500.0,321.0,7,78.78787878787878,0.12459315710089704,22.51082251082251,0.8003482702923483,中華の競合が少ない（2店舗）。商圏人口248人。飽和度が高い。栄駅から306m（徒歩圏）
5236671511,izakaya,1,35.175962882,136.9397904158,3.6,1056.0,1,5236671511,628.0,378.0,522.0,166.0,358.0,203.0,33.0,2,0.5555555555555556,2,0.34805091487669054,0.3333333333333333,0.5,236.375,0.6009538950715422,0.26391096979332274,0.5654596100278552,0.09192200557103064,15.772870662460567,7.886435331230284,0.7082522480654271,今池,39620.0,49019.35020265209,274000.0,1056.0,2,15.772870662460567,0.3204334365325077,7.886435331230284,0.8003459963947452,居酒屋の競合がほぼなし（1店舗）。商圏人口628人。今池駅から708m（徒歩圏）
5236670111,italian,1,35.1683289264,136.8904241494,4.1,386.0,1,5236670111,322.0,205.0,247.0,47.0,254.0,220.0,49.0,7,0.4602249062890461,48,0.9208432776451869,0.02040816326530612,30.375,516.4791666666666,0.6346749226006192,0.14551083591331268,0.8627450980392157,0.19215686274509805,498.9604989604989,10.395010395010393,0.43306782962856255,国際センター,9202.0,17262.3435303006,4180000.0,386.0,10,103.95010395010394,0.16253869969040247,10.395010395010393,0.800056154919784,イタリアンの競合がほぼなし（1店舗）。商圏人口322人。飽和度が高い。国際センター駅から433m（徒歩圏）
5236576132,izakaya,1,35.137623042,136.8935824898,3.9,268.0,1,5236576132,519.0,344.0,428.0,104.0,294.0,180.0,43.0,2,0.5,1,0.22991249005568815,0.5,0.375,200.125,0.6615384615384615,0.2,0.6101694915254238,0.14576271186440679,8.628127696289905,8.628127696289905,0.5477761913518009,日比野,14626.0,22578.785999340264,0.0,268.0,3,25.884383088869715,0.26418988648090813,8.628127696289905,0.7998805686997515,居酒屋の競合がほぼなし（1店舗）。商圏人口519人。日比野駅から548m（徒歩圏）
5236577423,izakaya,1,35.1444121192,136.9326902353,3.9,198.0,1,5236577423,870.0,525.0,738.0,247.0,447.0,197.0,32.0,2,0.5,1,0.22991249005568815,0.5,1.75,389.625,0.6027554535017221,0.2835820895522388,0.43973214285714285,0.07142857142857142,6.622516556291391,6.622516556291391,0.5275968500315259,桜山,21106.0,33629.869236819446,0.0,198.0,2,13.245033112582782,0.4453044375644995,6.622516556291391,0.7997541531601406,居酒屋の競合がほぼなし（1店舗）。商圏人口870人。桜山駅から528m（徒歩圏）
5236670133,other,1,35.1731936282,136.8894373918,3.5,159.0,1,5236670133,842.0,524.0,681.0,165.0,558.0,389.0,51.0,6,0.3795013850415513,18,0.8086714399363564,0.05263157894736842,37.875,511.0520833333333,0.6215895610913404,0.19572953736654805,0.6958855098389982,0.09123434704830054,121.45748987854252,6.747638326585695,0.11862807654065605,国際センター,9202.0,42089.74503916837,1570000.0,159.0,2,13.49527665317139,0.4308565531475748,6.747638326585695,0.7992579771103085,その他の競合がほぼなし（1店舗）。商圏人口842人。飽和度が高い。国際センター駅から119m（駅近）
5236673221,izakaya,1,35.1920608606,136.9091899889,3.8,308.0,1,5236673221,543.0,294.0,429.0,207.0,330.0,194.0,30.0,2,0.5,1,0.22991249005568815,0.5,0.25,157.0,0.5404411764705882,0.3805147058823529,0.5861027190332326,0.09063444108761329,8.4530853761623,8.4530853761623,0.4381638928010236,名城公園,9470.0,17596.869887927172,0.0,308.0,2,16.9061707523246,0.27657378740970073,8.4530853761623,0.7988467768643561,居酒屋の競合がほぼなし（1店舗）。商圏人口543人。名城公園駅から438m（徒歩圏）
5236575041,izakaya,1,35.1311310331,136.8835680396,4.8,13.0,1,5236575041,675.0,423.0,548.0,149.0,334.0,174.0,39.0,1,0.0,0,0.08273667462211615,1.0,0.125,73.85714285714286,0.6257396449704142,0.22041420118343194,0.5194029850746269,0.11641791044776119,0.0,7.604562737642585,0.861848581127763,六番町,12498.0,12993.729205636664,0.0,13.0,1,7.604562737642585,0.3446852425180599,7.604562737642585,0.7987672979628954,居酒屋の競合がほぼなし（1店舗）。商圏人口675人
5236670134,other,1,35.1749490304,136.8913096653,4.6,146.0,1,5236670134,809.0,467.0,616.0,158.0,599.0,481.0,92.0,4,0.31632653061224486,13,0.7362768496420048,0.07142857142857142,16.25,615.25,0.5765432098765432,0.19506172839506172,0.8016666666666666,0.15333333333333332,89.71704623878537,6.901311249137336,0.35961016006552565,国際センター,9202.0,20021.315452835268,0.0,146.0,5,34.50655624568668,0.41382868937048506,6.901311249137336,0.7983145321278684,その他の競合がほぼなし（1店舗）。商圏人口809人。飽和度が高い。国際センター駅から360m（徒歩圏）
5236674321,izakaya,1,35.2001846338,136.9194038054,3.7,157.0,1,5236674321,377.0,247.0,324.0,84.0,165.0,50.0,11.0,2,0.5,1,0.22991249005568815,0.5,0.375,243.625,0.6534391534391535,0.2222222222222222,0.30120481927710846,0.06626506024096386,9.83284169124877,9.83284169124877,0.4640546708060872,志賀本通,12888.0,22848.848998239544,0.0,157.0,3,29.498525073746315,0.19091847265221878,9.83284169124877,0.7977696111490767,居酒屋の競合がほぼなし（1店舗）。商圏人口377人。志賀本通駅から464m（徒歩圏）
5236661914,izakaya,1,35.1771551054,136.8660342822,3.7,3.0,1,5236661914,914.0,600.0,778.0,192.0,611.0,424.0,123.0,2,0.5,1,0.22991249005568815,0.5,1.25,366.25,0.6557377049180327,0.2098360655737705,0.6928104575163399,0.20098039215686275,6.435006435006436,6.435006435006436,0.06799528357597867,本陣,14118.0,84038.07356660045,0.0,3.0,6,38.610038610038615,0.4680082559339525,6.435006435006436,0.7977117007309188,居酒屋の競合がほぼなし（1店舗）。商圏人口914人。本陣駅から68m（駅近）
5236670113,ramen,1,35.1692234817,136.8877526825,3.4,192.0,1,5236670113,130.0,60.0,103.0,49.0,80.0,53.0,11.0,8,0.32323232323232326,65,0.9530628480509149,0.015151515151515152,46.25,387.7291666666667,0.4580152671755725,0.37404580152671757,0.654320987654321,0.13580246913580246,844.1558441558442,12.987012987012987,0.35503918779677784,国際センター,9202.0,20222.434126068383,2150000.0,192.0,3,38.96103896103896,0.06346749226006192,12.987012987012987,0.7974646269032313,ラーメンの競合がほぼなし（1店舗）。商圏人口130人。飽和度が高い。国際センター駅から355m（徒歩圏）
5236670022,yakiniku,1,35.1672542335,136.8866409062,3.7,285.0,1,5236670022,323.4166666666667,191.58333333333334,253.33333333333334,76.83333333333333,219.58333333333334,159.25,34.416666666666664,6,0.32132963988919666,37,0.8910103420843277,0.02631578947368421,29.75,265.6770833333333,0.5905471358849217,0.23683534549190852,0.7219493766528144,0.15602568945976575,384.049822679699,10.379724937289161,0.31480201445291356,名鉄名古屋,227395.0,548201.2914038363,8900000.0,285.0,10,103.79724937289161,0.16326969384244927,10.379724937289161,0.7971748800644947,焼肉の競合がほぼなし（1店舗）。商圏人口323人。飽和度が高い。名鉄名古屋駅から315m（徒歩圏）
5236579533,izakaya,1,35.1664753318,136.9391716481,3.7,14.0,1,5236579533,1388.0,961.0,1103.0,164.0,1071.0,882.0,221.0,2,0.5,1,0.22991249005568815,0.5,8.375,903.125,0.6918646508279338,0.11807055435565154,0.8227611940298507,0.20615671641791045,4.930966469428007,4.930966469428007,0.4178750190002258,今池,39620.0,76504.94529836111,0.0,14.0,2,9.861932938856015,0.7125902992776058,4.930966469428007,0.7969622192855795,"居酒屋の競合がほぼなし（1店舗）。商圏人口1,388人。飽和度が低く参入余地あり。今池駅から418m（徒歩圏）"
5236674432,izakaya,1,35.2043174644,136.929345013,3.6,69.0,1,5236674432,1164.0,682.0,1044.0,389.0,705.0,437.0,41.0,2,0.5,1,0.22991249005568815,0.5,1.0,407.0,0.5854077253218885,0.3339055793991416,0.6189801699716714,0.05807365439093484,5.5432372505543235,5.5432372505543235,0.05906020508116345,上飯田,1.0,6.286927641579057,0.0,69.0,8,44.34589800443459,0.5970072239422085,5.5432372505543235,0.7966989513479131,"居酒屋の競合がほぼなし（1店舗）。商圏人口1,164人。上飯田駅から59m（駅近）"
5236576424,izakaya,1,35.1354593324,136.9362402523,4.6,33.0,1,5236576424,699.0,389.0,502.0,134.0,379.0,225.0,51.0,1,0.0,0,0.08273667462211615,1.0,0.75,351.0,0.5557142857142857,0.19142857142857142,0.5921052631578947,0.13421052631578947,0.0,7.46825989544436,0.43965909286686505,瑞穂区役所,13682.0,25353.042653865512,0.0,33.0,2,14.93651979088872,0.3570691434468524,7.46825989544436,0.7966019919396914,居酒屋の競合がほぼなし（1店舗）。商圏人口699人。瑞穂区役所駅から440m（徒歩圏）
5236577233,izakaya,1,35.1480323699,136.9029960164,4.6,27.0,1,5236577233,1322.0,820.0,1035.0,257.0,848.0,576.0,111.0,1,0.0,0,0.08273667462211615,1.0,2.0,549.25,0.6198034769463341,0.1942554799697657,0.6784452296819788,0.13074204946996468,0.0,5.09683995922528,0.3163385177129215,東別院,13128.0,31532.033288959752,495000.0,27.0,3,15.29051987767584,0.6785345717234262,5.09683995922528,0.7964677010675006,"居酒屋の競合がほぼなし（1店舗）。商圏人口1,322人。東別院駅から316m（徒歩圏）"
5236569933,izakaya,1,35.1656996831,136.863769895,4.5,98.0,1,5236569933,636.0,329.0,542.0,234.0,301.0,138.0,20.0,1,0.0,0,0.08273667462211615,1.0,0.375,192.625,0.5164835164835165,0.3673469387755102,0.45695364238410596,0.06622516556291391,0.0,7.836990595611286,0.7660832434599614,中村日赤,8516.0,9832.773078461818,0.0,98.0,2,15.673981191222571,0.32456140350877194,7.836990595611286,0.7955931989077943,居酒屋の競合がほぼなし（1店舗）。商圏人口636人。中村日赤駅から766m（徒歩圏）
5236674142,izakaya,1,35.2059525943,136.8969194388,4.5,350.0,1,5236674142,592.0,279.0,527.0,262.0,368.0,229.0,10.0,1,0.0,0,0.08273667462211615,1.0,0.75,314.125,0.47048903878583476,0.4418212478920742,0.6205962059620597,0.02710027100271003,0.0,8.116883116883116,0.5585017621680382,庄内通,12982.0,19714.44990102733,0.0,350.0,9,73.05194805194805,0.3018575851393189,8.116883116883116,0.7955529116461371,居酒屋の競合がほぼなし（1店舗）。商圏人口592人。庄内通駅から559m（徒歩圏）
5236671214,izakaya,1,35.1778449009,136.9062307632,4.5,260.0,1,5236671214,91.0,53.0,53.0,0.0,72.0,57.0,10.0,1,0.0,0,0.08273667462211615,1.0,4.5,524.9,0.5760869565217391,0.0,0.7808219178082192,0.136986301369863,0.0,13.679890560875513,0.4202909181815374,名古屋城,0.0,0.0,0.0,260.0,2,27.359781121751027,0.043343653250773995,13.679890560875513,0.7951500390295648,居酒屋の競合がほぼなし（1店舗）。商圏人口91人。名古屋城駅から420m（徒歩圏）
5236579511,izakaya,1,35.1586506461,136.9384564392,3.4,553.0,1,5236579511,637.0,420.0,549.0,145.0,375.0,233.0,67.0,3,0.3333333333333333,2,0.34805091487669054,0.3333333333333333,1.0,292.875,0.658307210031348,0.22727272727272727,0.6196808510638298,0.17819148936170212,15.661707126076742,7.830853563038371,0.28044832944148307,吹上,14092.0,37040.50960267785,0.0,553.0,2,15.661707126076742,0.32507739938080493,7.830853563038371,0.7947095447790887,居酒屋の競合がほぼなし（1店舗）。商圏人口637人。吹上駅から280m（駅近）
5236673512,izakaya,1,35.191683921,136.941605519,3.4,27.0,1,5236673512,656.0,400.0,540.0,169.0,352.0,183.0,61.0,3,0.3333333333333333,2,0.34805091487669054,0.3333333333333333,1.375,167.0,0.60882800608828,0.2572298325722983,0.5184135977337111,0.17280453257790368,15.4320987654321,7.71604938271605,0.3495319967419225,ナゴヤドーム前矢田,12740.0,28340.58552524809,0.0,27.0,4,30.8641975308642,0.3348813209494324,7.71604938271605,0.7946716965111162,居酒屋の競合がほぼなし（1店舗）。商圏人口656人。ナゴヤドーム前矢田駅から350m（徒歩圏）
5236673324,izakaya,1,35.1953030913,136.9245332596,4.4,106.0,1,5236673324,779.0,529.0,678.0,179.0,439.0,235.0,45.0,1,0.0,0,0.08273667462211615,1.0,1.25,701.75,0.6782051282051282,0.22948717948717948,0.5340909090909091,0.10227272727272728,0.0,7.047216349541931,0.320956203352951,志賀本通,12888.0,30616.011588250778,0.0,106.0,8,56.37773079633545,0.39834881320949433,7.047216349541931,0.7944501150037064,居酒屋の競合がほぼなし（1店舗）。商圏人口779人。志賀本通駅から321m（徒歩圏）
5236672113,izakaya,1,35.1867204432,136.8901098972,4.4,105.0,1,5236672113,1097.0,695.0,899.0,226.0,553.0,276.0,54.0,1,0.0,0,0.08273667462211615,1.0,1.625,589.375,0.6329690346083788,0.2058287795992714,0.4981949458483754,0.09747292418772563,0.0,5.7570523891767404,0.3209433058856785,浅間町,8778.0,20853.164493329572,268000.0,105.0,2,11.514104778353481,0.5624355005159959,5.7570523891767404,0.7944098277420492,"居酒屋の競合がほぼなし（1店舗）。商圏人口1,097人。浅間町駅から321m（徒歩圏）"
5236578222,izakaya,1,35.1508849864,136.9096178376,4.4,102.0,1,5236578222,1147.0,591.0,715.0,156.0,657.0,370.0,40.0,1,0.0,0,0.08273667462211615,1.0,1.625,868.125,0.514808362369338,0.13588850174216027,0.5623100303951368,0.060790273556231005,0.0,5.595970900951315,0.4384828054908164,東別院,13128.0,24379.608533709983,0.0,102.0,2,11.19194180190263,0.5882352941176471,5.595970900951315,0.7944098277420492,"居酒屋の競合がほぼなし（1店舗）。商圏人口1,147人。東別院駅から438m（徒歩圏）"
5236660912,izakaya,1,35.1670759722,136.8660727004,4.4,50.0,1,5236660912,699.0,466.0,604.0,154.0,480.0,357.0,127.0,1,0.0,0,0.08273667462211615,1.0,1.75,840.375,0.6657142857142857,0.22,0.7422037422037422,0.26403326403326405,0.0,7.46825989544436,0.7099987788195139,中村日赤,8516.0,10513.59609752888,0.0,50.0,5,37.3412994772218,0.3570691434468524,7.46825989544436,0.7943963986548301,居酒屋の競合がほぼなし（1店舗）。商圏人口699人。中村日赤駅から710m（徒歩圏）
5236577531,izakaya,1,35.1476157777,136.9381096483,3.3,7.0,1,5236577531,924.0,597.0,721.0,175.0,423.0,171.0,21.0,3,0.3333333333333333,2,0.34805091487669054,0.3333333333333333,1.125,406.0,0.6454054054054054,0.1891891891891892,0.4033018867924528,0.049528301886792456,12.787723785166241,6.3938618925831205,0.4216827794421681,御器所,20380.0,39065.88601945458,0.0,7.0,5,31.969309462915604,0.47316821465428277,6.3938618925831205,0.7936775640219198,居酒屋の競合がほぼなし（1店舗）。商圏人口924人。御器所駅から422m（徒歩圏）
5236577334,izakaya,1,35.149229538,136.917666643,4.3,26.0,1,5236577334,465.0,310.0,402.0,102.0,271.0,167.0,61.0,1,0.0,0,0.08273667462211615,1.0,0.5,250.875,0.6652360515021459,0.21888412017167383,0.6139705882352942,0.22426470588235295,0.0,9.049773755656108,0.7530289705930937,鶴舞,32755.0,38398.46139953033,0.0,26.0,2,18.099547511312217,0.23632610939112486,9.049773755656108,0.7934816092334667,居酒屋の競合がほぼなし（1店舗）。商圏人口465人。鶴舞駅から753m（徒歩圏）
5236672331,izakaya,1,35.1885668997,136.9127434183,4.3,15.0,1,5236672331,601.0,351.0,522.0,188.0,337.0,205.0,27.0,1,0.0,0,0.08273667462211615,1.0,0.875,232.375,0.5830564784053156,0.3122923588039867,0.606508875739645,0.07988165680473373,0.0,8.058017727639001,0.18498106126732008,清水,16197.0,56835.35575301535,0.0,15.0,4,32.232070910556004,0.3065015479876161,8.058017727639001,0.7934413219718093,居酒屋の競合がほぼなし（1店舗）。商圏人口601人。清水駅から185m（駅近）
5236673331,izakaya,1,35.1973956297,136.9131294523,3.3,32.0,1,5236673331,889.0,659.0,771.0,143.0,563.0,383.0,148.0,2,0.5,1,0.22991249005568815,0.5,3.875,304.375,0.7404494382022472,0.16067415730337078,0.6790780141843972,0.2624113475177305,6.540222367560497,6.540222367560497,0.26922508046041094,黒川,24806.0,67183.9517756155,0.0,32.0,5,32.701111837802486,0.4551083591331269,6.540222367560497,0.7932322510785383,居酒屋の競合がほぼなし（1店舗）。商圏人口889人。黒川駅から269m（駅近）
5236575034,izakaya,1,35.1323299824,136.8802402297,4.2,204.0,1,5236575034,590.8571428571429,368.42857142857144,476.35714285714283,132.71428571428572,273.64285714285717,113.78571428571429,22.857142857142858,1,0.0,0,0.08273667462211615,1.0,0.125,84.375,0.6224957760077239,0.2242336471156167,0.4143042912873862,0.08322496749024706,0.0,8.124419684308263,1.1525675906368442,六番町,12498.0,9977.904660335038,0.0,204.0,5,40.62209842154132,0.30126787557128115,8.124419684308263,0.7924728162015694,居酒屋の競合がほぼなし（1店舗）。商圏人口590人
5236671513,izakaya,1,35.1775035411,136.9398095247,4.2,22.0,1,5236671513,972.0,606.0,830.0,265.0,539.0,280.0,67.0,1,0.0,0,0.08273667462211615,1.0,0.625,257.0,0.6228160328879754,0.2723535457348407,0.5185185185185185,0.12407407407407407,0.0,6.203473945409429,0.8729319779614942,今池,39620.0,40722.27133803597,0.0,22.0,3,18.610421836228287,0.4979360165118679,6.203473945409429,0.7924190998526932,居酒屋の競合がほぼなし（1店舗）。商圏人口972人
5236671413,izakaya,1,35.1773032421,136.9266970601,4.2,157.0,1,5236671413,575.0,333.0,424.0,115.0,245.0,89.0,11.0,1,0.0,0,0.08273667462211615,1.0,0.75,526.625,0.578125,0.1996527777777778,0.3617886178861789,0.044715447154471545,0.0,8.23045267489712,0.49507210283132774,車道,12282.0,20639.51568484351,0.0,157.0,1,8.23045267489712,0.2930856553147575,8.23045267489712,0.7924056707654741,居酒屋の競合がほぼなし（1店舗）。商圏人口575人。車道駅から495m（徒歩圏）
5236674221,izakaya,1,35.2014478159,136.907760327,4.2,100.0,1,5236674221,771.0,466.0,658.0,218.0,334.0,117.0,32.0,1,0.0,0,0.08273667462211615,1.0,1.125,408.25,0.6036269430051814,0.2823834196891192,0.3492537313432836,0.0955223880597015,0.0,7.087172218284904,0.522635944826486,黒川,24806.0,39840.2954505186,0.0,100.0,3,21.261516654854713,0.3942208462332301,7.087172218284904,0.7923653835038169,居酒屋の競合がほぼなし（1店舗）。商圏人口771人。黒川駅から523m（徒歩圏）
5236674431,izakaya,1,35.2062313152,136.9253250149,4.2,17.0,1,5236674431,653.0,421.0,573.0,175.0,322.0,129.0,16.0,1,0.0,0,0.08273667462211615,1.0,1.375,451.25,0.6437308868501529,0.26758409785932724,0.3993808049535604,0.04953560371517028,0.0,7.733952049497293,0.473551174172423,上飯田,1.0,1.7435235860913372,0.0,17.0,2,15.467904098994586,0.3333333333333333,7.733952049497293,0.7923385253293787,居酒屋の競合がほぼなし（1店舗）。商圏人口653人。上飯田駅から474m（徒歩圏）
5236671011,izakaya,1,35.1759610554,136.8766056288,4.2,60.0,1,5236671011,994.0,560.0,824.0,285.0,616.0,432.0,73.0,1,0.0,0,0.08273667462211615,1.0,3.5,358.25,0.5628140703517588,0.2864321608040201,0.700162074554295,0.11831442463533225,0.0,6.119951040391677,0.17454977549140854,亀島,9712.0,35374.27769742946,390000.0,60.0,3,18.359853121175032,0.5092879256965944,6.119951040391677,0.7921102308466543,居酒屋の競合がほぼなし（1店舗）。商圏人口994人。亀島駅から175m（駅近）
5236671212,other,1,35.1761858669,136.903961854,4.2,471.0,1,5236671212,924.0,433.0,548.0,135.0,609.0,415.0,42.0,6,0.26627218934911245,12,0.7175815433571997,0.07692307692307693,7.5,562.775,0.4681081081081081,0.14594594594594595,0.680327868852459,0.06885245901639345,76.72634271099746,6.3938618925831205,0.46545497406392117,久屋大通,41610.0,73586.76094216522,1510000.0,471.0,2,12.787723785166241,0.47316821465428277,6.3938618925831205,0.7915805390702874,その他の競合がほぼなし（1店舗）。商圏人口924人。飽和度が高い。久屋大通駅から465m（徒歩圏）
5236575443,izakaya,1,35.131546672,136.9342677878,4.1,20.0,1,5236575443,384.0,211.0,285.0,86.0,206.0,102.0,19.0,1,0.0,0,0.08273667462211615,1.0,0.125,102.5,0.548051948051948,0.22337662337662337,0.4927536231884058,0.09178743961352658,0.0,9.765625,0.03111010032438304,瑞穂区役所,13682.0,104355.04180188249,0.0,20.0,3,29.296875000000004,0.19453044375644996,9.765625,0.7914237359080152,居酒屋の競合がほぼなし（1店舗）。商圏人口384人。瑞穂区役所駅から31m（駅近）
5236576342,izakaya,1,35.1388764462,136.9249572191,4.1,140.0,1,5236576342,919.0,500.0,654.0,206.0,396.0,138.0,22.0,1,0.0,0,0.08273667462211615,1.0,0.625,354.0,0.5434782608695652,0.22391304347826088,0.34760705289672544,0.055415617128463476,0.0,6.414368184733805,0.7654963576715872,桜山,21106.0,24386.00672656866,0.0,140.0,2,12.82873636946761,0.47058823529411764,6.414368184733805,0.7913700195591388,居酒屋の競合がほぼなし（1店舗）。商圏人口919人。桜山駅から765m（徒歩圏）
5236578123,izakaya,1,35.1523344741,136.8954145745,4.1,41.0,1,5236578123,764.0,420.0,569.0,163.0,382.0,176.0,19.0,1,0.0,0,0.08273667462211615,1.0,0.625,235.375,0.5490196078431373,0.2130718954248366,0.4595300261096606,0.04960835509138381,0.0,7.122507122507122,0.7169354951409777,尾頭橋,6335.0,7754.590218786829,0.0,41.0,1,7.122507122507122,0.39060887512899894,7.122507122507122,0.7913700195591388,居酒屋の競合がほぼなし（1店舗）。商圏人口764人。尾頭橋駅から717m（徒歩圏）
5236671442,izakaya,1,35.1801614751,136.9358239409,4.0,9.0,1,5236671442,620.0,341.0,515.0,190.0,290.0,128.0,28.0,1,0.0,0,0.08273667462211615,1.0,0.25,207.625,0.5491143317230274,0.3059581320450886,0.43986254295532645,0.09621993127147767,0.0,7.936507936507937,0.9345600591453397,車道,12282.0,11871.712900018856,287000.0,9.0,1,7.936507936507937,0.31630546955624356,7.936507936507937,0.7903612265272417,居酒屋の競合がほぼなし（1店舗）。商圏人口620人
5236662924,izakaya,1,35.18591432,136.8745462795,4.0,4.0,1,5236662924,918.0,577.0,795.0,240.0,521.0,299.0,80.0,1,0.0,0,0.08273667462211615,1.0,0.5,362.625,0.6278563656147987,0.2611534276387378,0.5727969348659003,0.1532567049808429,0.0,6.418485237483954,0.28249759883998793,栄生,11969.0,31291.699702949118,0.0,4.0,2,12.836970474967908,0.47007223942208465,6.418485237483954,0.7903343683528037,居酒屋の競合がほぼなし（1店舗）。商圏人口918人。栄生駅から282m（駅近）
5236670332,other,1,35.1710237012,136.9163745742,4.5,46.0,1,5236670332,576.0,374.0,468.0,119.0,370.0,249.0,41.0,4,0.35537190082644626,10,0.6718377088305489,0.09090909090909091,12.375,627.5,0.6481802426343154,0.20623916811091855,0.6711590296495957,0.1105121293800539,82.23684210526316,8.223684210526315,0.3440988427730617,高岳,15676.0,35298.44820606878,0.0,46.0,4,32.89473684210526,0.2936016511867905,8.223684210526315,0.7898820135970028,その他の競合がほぼなし（1店舗）。商圏人口576人。飽和度が高い。高岳駅から344m（徒歩圏）
5236579534,izakaya,1,35.166625098,136.9416586488,4.0,82.0,1,5236579534,1203.0,805.0,1002.0,237.0,739.0,486.0,141.0,1,0.0,0,0.08273667462211615,1.0,7.75,869.375,0.6686046511627907,0.19684385382059802,0.6567567567567567,0.19054054054054054,0.0,5.425935973955506,0.4540662981903445,池下,22894.0,41319.964911735115,410000.0,82.0,0,0.0,0.6171310629514963,5.425935973955506,0.7895554812940971,"居酒屋の競合がほぼなし（1店舗）。商圏人口1,203人。池下駅から454m（徒歩圏）"
5236670324,other,1,35.1706655845,136.9235517415,3.8,49.0,1,5236670324,1120.0,622.0,766.0,159.0,934.0,805.0,169.0,4,0.37278106508875736,12,0.7175815433571997,0.07692307692307693,5.625,793.875,0.5548617305976806,0.14183764495985726,0.8609625668449198,0.18074866310160428,68.18181818181819,5.6818181818181825,0.2886547023448694,新栄町,25718.0,66171.84828804503,1090000.0,49.0,3,17.045454545454547,0.5743034055727554,5.6818181818181825,0.7893471051792947,"その他の競合がほぼなし（1店舗）。商圏人口1,120人。飽和度が高い。新栄町駅から289m（駅近）"
5236575143,izakaya,1,35.1323397624,136.8939970898,3.9,20.0,1,5236575143,1118.0,645.0,963.0,349.0,640.0,351.0,36.0,1,0.0,0,0.08273667462211615,1.0,0.375,319.625,0.5764075067024129,0.3118856121537087,0.5475819032761311,0.056162246489859596,0.0,5.688282138794084,0.08940606903382202,日比野,14626.0,77220.33446239916,0.0,20.0,6,34.129692832764505,0.5732714138286894,5.688282138794084,0.7892987171464684,"居酒屋の競合がほぼなし（1店舗）。商圏人口1,118人。日比野駅から89m（駅近）"
5236671031,izakaya,1,35.1809549387,136.8768293168,3.9,78.0,1,5236671031,473.0,314.0,388.0,83.0,317.0,228.0,54.0,1,0.0,0,0.08273667462211615,1.0,1.75,287.125,0.6624472573839663,0.1751054852320675,0.7169811320754716,0.16981132075471697,0.0,8.98472596585804,0.38133880948913024,亀島,9712.0,20177.055763086813,0.0,78.0,1,8.98472596585804,0.24045407636738905,8.98472596585804,0.7891509971870586,居酒屋の競合がほぼなし（1店舗）。商圏人口473人。亀島駅から381m（徒歩圏）
5236577422,izakaya,1,35.1429559425,136.934609566,3.8,370.0,1,5236577422,780.0,492.0,664.0,201.0,418.0,223.0,97.0,1,0.0,0,0.08273667462211615,1.0,2.0,529.375,0.6299615877080665,0.2573623559539053,0.5322195704057279,0.2315035799522673,0.0,7.04225352112676,0.38120037225853015,桜山,21106.0,43861.14645119304,0.0,370.0,0,0.0,0.3988648090815273,7.04225352112676,0.7880750587190661,居酒屋の競合がほぼなし（1店舗）。商圏人口780人。桜山駅から381m（徒歩圏）
5236670241,chinese,1,35.1709921174,136.9082780567,4.4,121.0,1,5236670241,53.0,28.0,46.0,18.0,35.0,23.0,3.0,7,0.2564398308342945,50,0.930389817024662,0.0196078431372549,42.375,265.0576923076923,0.5185185185185185,0.3333333333333333,0.6388888888888888,0.08333333333333333,721.5007215007215,14.43001443001443,0.07809789173719615,栄町,33857.0,190103.31716873933,3410000.0,121.0,9,129.87012987012986,0.023735810113519093,14.43001443001443,0.7875294361070161,中華の競合がほぼなし（1店舗）。商圏人口53人。飽和度が高い。栄町駅から78m（駅近）
5236662942,izakaya,1,35.1884564857,136.872678294,3.7,187.0,1,5236662942,650.0,377.0,572.0,212.0,381.0,258.0,86.0,1,0.0,0,0.08273667462211615,1.0,0.375,315.5,0.5791090629800307,0.32565284178187404,0.675392670157068,0.225130890052356,0.0,7.751937984496124,0.2731740859625211,東枇杷島,5381.0,14419.543592157223,0.0,187.0,2,15.503875968992247,0.3317853457172343,7.751937984496124,0.7872005565593598,居酒屋の競合がほぼなし（1店舗）。商圏人口650人。東枇杷島駅から273m（駅近）
5236567921,izakaya,1,35.1420158899,136.8714037019,3.7,732.0,1,5236567921,149.0,96.0,126.0,33.0,82.0,42.0,10.0,1,0.0,0,0.08273667462211615,1.0,0.5,228.5,0.64,0.22,0.5060240963855421,0.12048192771084337,0.0,12.67427122940431,0.9127035488282501,荒子,3800.0,3752.332066374997,0.0,732.0,4,50.69708491761724,0.07327141382868937,12.67427122940431,0.7871871274721407,居酒屋の競合がほぼなし（1店舗）。商圏人口149人
5236672112,izakaya,1,35.1846515406,136.8913057018,3.7,44.0,1,5236672112,731.0,444.0,609.0,189.0,391.0,223.0,75.0,1,0.0,0,0.08273667462211615,1.0,1.125,548.25,0.6065573770491803,0.2581967213114754,0.5688775510204082,0.1913265306122449,0.0,7.293946024799417,0.126195945743019,浅間町,8778.0,38807.06159947127,0.0,44.0,6,43.7636761487965,0.3735810113519092,7.293946024799417,0.7871199820360454,居酒屋の競合がほぼなし（1店舗）。商圏人口731人。浅間町駅から126m（駅近）
5236567924,izakaya,1,35.1442109306,136.8718894134,3.6,38.0,1,5236567924,1035.0,744.0,786.0,85.0,426.0,113.0,13.0,1,0.0,0,0.08273667462211615,1.0,0.375,89.75,0.7181467181467182,0.08204633204633205,0.2646370023419204,0.03044496487119438,0.0,5.970149253731344,1.0404403326651397,荒子,3800.0,3332.0463080428162,0.0,38.0,3,17.910447761194032,0.5304437564499485,5.970149253731344,0.7861514762658055,"居酒屋の競合がほぼなし（1店舗）。商圏人口1,035人"
5236673232,izakaya,1,35.1968635293,136.904313849,3.6,551.0,1,5236673232,859.0,607.0,715.0,132.0,409.0,163.0,20.0,1,0.0,0,0.08273667462211615,1.0,0.5,99.5,0.7058139534883721,0.15348837209302327,0.3975609756097561,0.04878048780487805,0.0,6.6711140760507,0.5340329780586416,黒川,24806.0,39124.14788889057,266000.0,551.0,3,20.0133422281521,0.43962848297213625,6.6711140760507,0.7861380471785864,居酒屋の競合がほぼなし（1店舗）。商圏人口859人。黒川駅から534m（徒歩圏）
5236674223,izakaya,1,35.2039333529,136.9071808425,3.6,635.0,1,5236674223,851.0,561.0,728.0,206.0,419.0,188.0,43.0,1,0.0,0,0.08273667462211615,1.0,0.625,400.375,0.6584507042253521,0.24178403755868544,0.44761904761904764,0.10238095238095238,0.0,6.706908115358819,0.798479698299624,黒川,24806.0,27608.859773844022,0.0,635.0,3,20.120724346076457,0.43550051599587203,6.706908115358819,0.7861246180913672,居酒屋の競合がほぼなし（1店舗）。商圏人口851人。黒川駅から798m（徒歩圏）
5236576034,izakaya,1,35.1410456506,136.8798316158,3.6,163.0,1,5236576034,670.0,400.0,540.0,167.0,288.0,106.0,28.0,1,0.0,0,0.08273667462211615,1.0,0.75,163.0,0.5961251862891207,0.2488822652757079,0.36678200692041524,0.09688581314878893,0.0,7.633587786259541,1.2126337665530085,尾頭橋,6335.0,4826.174795606381,0.0,163.0,3,22.900763358778626,0.34210526315789475,7.633587786259541,0.7861111890041481,居酒屋の競合がほぼなし（1店舗）。商圏人口670人
5236670512,other,1,35.1675858379,136.9422891147,4.2,476.0,1,5236670512,1110.0,762.0,951.0,220.0,755.0,539.0,167.0,5,0.256198347107438,10,0.6718377088305489,0.09090909090909091,9.5,1092.25,0.6858685868586859,0.19801980198019803,0.7129629629629629,0.2208994708994709,57.142857142857146,5.714285714285714,0.3816196556261121,池下,22894.0,47535.435343139165,0.0,476.0,8,45.714285714285715,0.5691434468524251,5.714285714285714,0.7857545738454302,"その他の競合がほぼなし（1店舗）。商圏人口1,110人。飽和度が高い。池下駅から382m（徒歩圏）"
5236579212,washoku,1,35.1586453581,136.904026097,4.1,174.0,1,5236579212,390.0,198.0,327.0,143.0,208.0,103.0,8.0,8,0.21956295525494277,30,0.8711217183770883,0.03225806451612903,10.625,675.0,0.5063938618925832,0.3657289002557545,0.49282296650717705,0.03827751196172249,291.26213592233006,9.70873786407767,0.2848843616477707,上前津,39900.0,103667.50114028984,1350000.0,174.0,10,97.08737864077669,0.19762641898864808,9.70873786407767,0.7855463144213322,和食の競合がほぼなし（1店舗）。商圏人口390人。飽和度が高い。上前津駅から285m（駅近）
5236670244,other,1,35.1729766668,136.9104111325,3.8,119.0,1,5236670244,900.0,612.0,773.0,181.0,583.0,378.0,58.0,4,0.5537190082644627,10,0.6718377088305489,0.09090909090909091,15.875,810.5,0.6792452830188679,0.2008879023307436,0.6472602739726028,0.09931506849315068,64.93506493506493,6.4935064935064934,0.22377032754793416,久屋大通,41610.0,128517.02722461385,3140000.0,119.0,4,25.974025974025974,0.46078431372549017,6.4935064935064934,0.7854574764826896,その他の競合がほぼなし（1店舗）。商圏人口900人。飽和度が高い。久屋大通駅から224m（駅近）
5236568911,izakaya,1,35.1517557487,136.8653755392,3.3,121.0,1,5236568911,808.0,551.0,653.0,128.0,504.0,330.0,120.0,1,0.0,0,0.08273667462211615,1.0,0.375,115.625,0.681087762669963,0.15822002472187885,0.6534653465346535,0.2376237623762376,0.0,6.906077348066299,0.18791623804310043,烏森,4779.0,16598.5775324162,165000.0,121.0,7,48.342541436464096,0.413312693498452,6.906077348066299,0.7830042353851424,居酒屋の競合がほぼなし（1店舗）。商圏人口808人。烏森駅から188m（駅近）
5236670043,cafe,1,35.1736089653,136.8824440956,3.7,968.0,1,5236670043,51.0,22.0,40.0,18.0,33.0,20.0,0.0,7,0.4359504132231405,43,0.9053301511535402,0.022727272727272728,36.375,355.1041666666667,0.4230769230769231,0.34615384615384615,0.5882352941176471,0.0,622.2865412445732,14.471780028943561,0.2946278235705723,名古屋,287964.0,729710.3316094554,4335000.0,968.0,11,159.18958031837917,0.022703818369453045,14.471780028943561,0.7823463834509868,カフェの競合がほぼなし（1店舗）。商圏人口51人。飽和度が高い。名古屋駅から295m（駅近）
5236673111,other,1,35.1935566219,136.8905176687,4.2,165.0,1,5236673111,1178.0,720.0,1008.0,328.0,637.0,331.0,68.0,5,0.2839506172839506,8,0.6193317422434368,0.1111111111111111,2.25,433.25,0.6106870229007634,0.2782018659881255,0.5188087774294671,0.10658307210031348,44.004400440044,5.5005500550055,0.1527675147703689,浄心,12744.0,50417.87118719552,0.0,165.0,3,16.5016501650165,0.6042311661506707,5.5005500550055,0.7814472359566915,"その他の競合がほぼなし（1店舗）。商圏人口1,178人。飽和度が高い。浄心駅から153m（駅近）"
5236670511,yakiniku,1,35.1684431252,136.9375831034,4.0,152.0,1,5236670511,1035.0,699.0,834.0,154.0,850.0,719.0,186.0,5,0.5382653061224489,27,0.858392999204455,0.03571428571428571,9.625,977.0,0.6747104247104247,0.14864864864864866,0.8448883666274971,0.21856639247943596,161.1940298507463,5.970149253731344,0.16570195766894952,今池,39620.0,149114.44517606604,674500.0,152.0,15,89.55223880597016,0.5304437564499485,5.970149253731344,0.7799487686423922,"焼肉の競合がほぼなし（1店舗）。商圏人口1,035人。飽和度が高い。今池駅から166m（駅近）"
5236578233,other,1,35.1573679803,136.9030973352,4.3,36.0,1,5236578233,633.0,349.0,477.0,147.0,368.0,227.0,37.0,4,0.28125,7,0.5898965791567223,0.125,9.75,952.875,0.5504731861198738,0.23186119873817035,0.6151761517615176,0.1002710027100271,54.988216810683426,7.855459544383347,0.3381901412648666,上前津,39900.0,91056.3617082435,0.0,36.0,0,0.0,0.32301341589267285,7.855459544383347,0.7787009816646715,その他の競合がほぼなし（1店舗）。商圏人口633人。飽和度が高い。上前津駅から338m（徒歩圏）
5236670044,cafe,2,35.173558233600005,136.88635986819997,3.8,601.0,2,5236670044,323.4166666666667,191.58333333333334,253.33333333333334,76.83333333333333,219.58333333333334,159.25,34.416666666666664,6,0.4690625,78,0.9685759745425616,0.025,38.875,498.3020833333333,0.5905471358849217,0.23683534549190852,0.7219493766528144,0.15602568945976575,809.6185451085546,20.759449874578323,0.3168555000446954,国際センター,9202.0,22074.79570022072,2890000.0,300.5,5,51.89862468644581,0.16326969384244927,20.759449874578323,0.7785007947801003,カフェの競合が少ない（2店舗）。商圏人口323人。飽和度が高い。国際センター駅から317m（徒歩圏）
5236670213,italian,1,35.1691180354,136.9030563563,4.1,576.0,1,5236670213,34.0,10.0,13.0,3.0,30.0,25.0,2.0,8,0.2177777777777778,44,0.9093078758949881,0.022222222222222223,75.25,193.375,0.2857142857142857,0.08571428571428572,0.8064516129032258,0.06451612903225806,652.8189910979229,14.836795252225519,0.4624555625691872,栄,160200.0,284822.50094254146,4800000.0,576.0,1,14.836795252225519,0.01393188854489164,14.836795252225519,0.7784755509284109,イタリアンの競合がほぼなし（1店舗）。商圏人口34人。飽和度が高い。栄駅から462m（徒歩圏）
5236671121,other,1,35.1758504228,136.8956242575,4.4,152.0,1,5236671121,891.0,478.0,575.0,117.0,633.0,466.0,34.0,2,0.6800000000000002,4,0.48766905330151156,0.2,6.5,592.875,0.5358744394618834,0.1311659192825112,0.7350157728706624,0.05362776025236593,26.12671456564337,6.531678641410842,0.2918184560150933,丸の内,29788.0,76025.00480184764,0.0,152.0,2,13.063357282821684,0.45614035087719296,6.531678641410842,0.7781688899258031,その他の競合がほぼなし（1店舗）。商圏人口891人。飽和度が高い。丸の内駅から292m（駅近）
5236673313,other,1,35.1948014901,136.9135592316,4.6,10.0,1,5236673313,567.0,337.0,501.0,190.0,282.0,148.0,30.0,4,0.33333333333333337,5,0.5250596658711217,0.16666666666666666,2.75,302.5,0.5933098591549296,0.3345070422535211,0.5229681978798587,0.10600706713780919,41.42502071251035,8.285004142502071,0.4056141801480416,黒川,24806.0,49061.12402293961,0.0,10.0,5,41.42502071251035,0.2889576883384933,8.285004142502071,0.7779001928552433,その他の競合がほぼなし（1店舗）。商圏人口567人。飽和度が高い。黒川駅から406m（徒歩圏）
5236578332,other,1,35.1550008111,136.9169776043,3.6,297.0,1,5236578332,192.0,93.0,141.0,53.0,102.0,67.0,17.0,4,0.48148148148148145,8,0.6193317422434368,0.1111111111111111,3.375,754.5384615384615,0.48186528497409326,0.27461139896373055,0.6504854368932039,0.1650485436893204,96.15384615384616,12.01923076923077,0.1086629280624168,鶴舞,32755.0,156975.65592581965,0.0,297.0,3,36.05769230769231,0.09545923632610939,12.01923076923077,0.7775763890585398,その他の競合がほぼなし（1店舗）。商圏人口192人。飽和度が高い。鶴舞駅から109m（駅近）
5236577211,washoku,2,35.1436554947,136.9025699623,3.8,613.0,2,5236577211,44.0,23.0,38.0,16.0,32.0,22.0,3.0,8,0.6346625083537536,65,0.9530628480509149,0.029850746268656716,22.75,633.25,0.5111111111111111,0.35555555555555557,0.6666666666666666,0.09090909090909091,950.2923976608187,29.239766081871345,0.08848614727730647,金山,139941.0,742447.1348237311,2735000.0,306.5,23,336.2573099415205,0.019091847265221878,29.239766081871345,0.7774516106264525,和食の競合が少ない（2店舗）。商圏人口44人。飽和度が高い。金山駅から88m（駅近）
5236670322,other,1,35.1672318007,136.9232807788,4.4,31.0,1,5236670322,1220.0,569.0,706.0,162.0,930.0,740.0,109.0,5,0.26530612244897955,6,0.5624502784407319,0.14285714285714285,6.0,919.75,0.46601146601146604,0.13267813267813267,0.7948442534908701,0.11707841031149302,32.25806451612903,5.376344086021505,0.4699866450035512,新栄町,25718.0,45120.355407344265,404000.0,31.0,5,26.881720430107528,0.6259029927760578,5.376344086021505,0.7773137362993451,"その他の競合がほぼなし（1店舗）。商圏人口1,220人。飽和度が高い。新栄町駅から470m（徒歩圏）"
5236670111,chinese,1,35.1683474744,136.8879315876,3.3,706.0,1,5236670111,322.0,205.0,247.0,47.0,254.0,220.0,49.0,7,0.4602249062890461,48,0.9208432776451869,0.02040816326530612,30.375,516.4791666666666,0.6346749226006192,0.14551083591331268,0.8627450980392157,0.19215686274509805,498.9604989604989,10.395010395010393,0.35492206132172566,名鉄名古屋,227395.0,499854.8528056191,4180000.0,706.0,10,103.95010395010394,0.16253869969040247,10.395010395010393,0.7771781042336773,中華の競合がほぼなし（1店舗）。商圏人口322人。飽和度が高い。名鉄名古屋駅から355m（徒歩圏）
5236578333,other,1,35.1565258448,136.9140750232,3.9,78.0,1,5236578333,1526.0,787.0,1057.0,296.0,1109.0,818.0,149.0,2,0.7222222222222223,5,0.5250596658711217,0.16666666666666666,4.75,1112.375,0.5153896529142109,0.19384413883431564,0.736936936936937,0.13423423423423422,23.084025854108955,4.616805170821791,0.251105226342123,鶴舞,32755.0,93291.12056020196,595000.0,78.0,3,13.850415512465373,0.7837977296181631,4.616805170821791,0.7766366630673817,"その他の競合がほぼなし（1店舗）。商圏人口1,526人。飽和度が高い。鶴舞駅から251m（駅近）"
5236671313,other,1,35.1785125361,136.9148330469,4.0,192.0,1,5236671313,1122.0,743.0,880.0,148.0,745.0,520.0,129.0,4,0.3125,7,0.5898965791567223,0.125,5.875,1173.375,0.661620658949243,0.13178984861976847,0.6970509383378016,0.17292225201072386,39.727582292849036,5.675368898978434,0.500497666984003,高岳,15676.0,26105.013994030392,0.0,192.0,9,51.0783200908059,0.5753353973168215,5.675368898978434,0.7766223315416045,"その他の競合がほぼなし（1店舗）。商圏人口1,122人。飽和度が高い。高岳駅から500m（徒歩圏）"
5236670132,other,1,35.1711400528,136.8927246807,4.0,65.0,1,5236670132,336.0,214.0,255.0,49.0,244.0,189.0,25.0,5,0.2839506172839506,8,0.6193317422434368,0.1111111111111111,24.25,466.125,0.6350148367952523,0.14540059347181009,0.7714285714285715,0.10204081632653061,81.9672131147541,10.245901639344263,0.32367840551931315,国際センター,9202.0,21719.303792981565,0.0,65.0,1,10.245901639344263,0.1697626418988648,10.245901639344263,0.7765822995343356,その他の競合がほぼなし（1店舗）。商圏人口336人。飽和度が高い。国際センター駅から324m（徒歩圏）
5236577211,yakiniku,2,35.143684632,136.90150519265,3.95,737.0,2,5236577211,44.0,23.0,38.0,16.0,32.0,22.0,3.0,8,0.6346625083537536,65,0.9530628480509149,0.029850746268656716,22.75,633.25,0.5111111111111111,0.35555555555555557,0.6666666666666666,0.09090909090909091,950.2923976608187,29.239766081871345,0.02068028152329337,金山,139941.0,1159601.2060428362,2735000.0,368.5,23,336.2573099415205,0.019091847265221878,29.239766081871345,0.7764802227476025,焼肉の競合が少ない（2店舗）。商圏人口44人。飽和度が高い。金山駅から21m（駅近）
5236670031,other,1,35.1728036585,136.8775312186,3.7,285.0,1,5236670031,802.0,496.0,601.0,128.0,602.0,477.0,105.0,5,0.3580246913580247,8,0.6193317422434368,0.1111111111111111,13.875,500.125,0.6176836861768369,0.15940224159402241,0.7910447761194029,0.17412935323383086,55.47850208044383,6.934812760055479,0.44079548234641575,名古屋,287964.0,532482.2588209785,0.0,285.0,4,27.739251040221916,0.4102167182662539,6.934812760055479,0.7759929652899688,その他の競合がほぼなし（1店舗）。商圏人口802人。飽和度が高い。名古屋駅から441m（徒歩圏）
5236673511,other,1,35.1923368293,136.9386265874,4.1,268.0,1,5236673511,626.0,437.0,571.0,151.0,415.0,280.0,90.0,4,0.3877551020408163,6,0.5624502784407319,0.14285714285714285,7.375,376.25,0.696969696969697,0.24082934609250398,0.6730769230769231,0.21634615384615385,47.39336492890995,7.8988941548183265,0.12938273594598915,大曽根,53523.0,233334.90979287392,0.0,268.0,9,71.09004739336494,0.3194014447884417,7.8988941548183265,0.7757787245438633,その他の競合がほぼなし（1店舗）。商圏人口626人。飽和度が高い。大曽根駅から129m（駅近）
5236670222,yakiniku,3,35.16797678933333,136.91115754573332,4.1000000000000005,815.0,3,5236670222,248.46153846153845,142.46153846153845,175.84615384615384,38.30769230769231,174.84615384615384,126.46153846153847,15.538461538461538,7,0.28576177285318555,92,0.9765314240254575,0.031578947368421054,22.875,370.99038461538464,0.5710761640456368,0.15356151711378355,0.7191601049868767,0.08836395450568679,1035.4978354978355,33.76623376623376,0.35040246808763603,栄町,33857.0,75170.54723024376,2306500.0,271.6666666666667,7,78.78787878787878,0.12459315710089704,33.76623376623376,0.7755577028976606,焼肉の競合が少ない（3店舗）。商圏人口248人。飽和度が高い。栄町駅から350m（徒歩圏）
5236674114,other,1,35.2037288333,136.8918427389,4.6,80.0,1,5236674114,724.0,458.0,623.0,197.0,415.0,241.0,45.0,4,0.28,4,0.48766905330151156,0.2,0.5,299.0,0.6317241379310344,0.2717241379310345,0.5793269230769231,0.10817307692307693,29.325513196480934,7.331378299120233,0.11031373439469697,庄内通,12982.0,61726.82938355613,0.0,80.0,25,183.28445747800583,0.369969040247678,7.331378299120233,0.7746033078478963,その他の競合がほぼなし（1店舗）。商圏人口724人。飽和度が高い。庄内通駅から110m（駅近）
5236579124,izakaya,1,35.1618181966,136.898515905,0.0,0.0,0,5236579124,1024.0,522.0,622.0,109.0,790.0,635.0,118.0,5,0.25925925925925924,8,0.6193317422434368,0.1111111111111111,5.5,821.375,0.5092682926829268,0.10634146341463414,0.8027812895069533,0.14917825537294563,48.07692307692308,6.009615384615385,0.12540716314351863,大須観音,14730.0,65348.41126863961,0.0,0.0,2,12.01923076923077,0.5247678018575851,6.009615384615385,0.7740344404777889,"居酒屋の競合がほぼなし（1店舗）。商圏人口1,024人。飽和度が高い。大須観音駅から125m（駅近）"
5236672543,other,1,35.1909818525,136.9446216714,5.0,6.0,1,5236672543,649.0,494.0,561.0,90.0,361.0,195.0,69.0,2,0.5,1,0.22991249005568815,0.5,0.625,89.625,0.76,0.13846153846153847,0.5386740331491713,0.19060773480662985,7.757951900698215,7.757951900698215,0.06601681610394544,ナゴヤドーム前矢田,12740.0,76739.21412890672,0.0,6.0,4,31.03180760279286,0.33126934984520123,7.757951900698215,0.7739745378345383,その他の競合がほぼなし（1店舗）。商圏人口649人。ナゴヤドーム前矢田駅から66m（駅近）
5236673244,other,1,35.1997939467,136.9122380536,4.2,102.0,1,5236673244,876.0,649.0,783.0,161.0,511.0,304.0,106.0,4,0.3333333333333333,5,0.5250596658711217,0.16666666666666666,2.875,428.375,0.7400228050171037,0.18358038768529075,0.59375,0.20703125,32.98153034300791,6.596306068601582,0.34543624731523837,黒川,24806.0,55689.22634723218,306000.0,102.0,10,65.96306068601582,0.4484004127966976,6.596306068601582,0.7737801327933739,その他の競合がほぼなし（1店舗）。商圏人口876人。飽和度が高い。黒川駅から345m（徒歩圏）
5236674213,other,1,35.2034054806,136.9008836313,4.9,10.0,1,5236674213,143.0,89.0,131.0,46.0,77.0,36.0,14.0,2,0.5,1,0.22991249005568815,0.5,0.375,232.0,0.6180555555555556,0.3194444444444444,0.46153846153846156,0.1794871794871795,12.771392081736908,12.771392081736908,0.9018987747320522,庄内通,12982.0,12957.396822320603,0.0,10.0,2,25.542784163473815,0.07017543859649122,12.771392081736908,0.7728990609083842,その他の競合がほぼなし（1店舗）。商圏人口143人
5236670013,other,1,35.1699514276,136.8753070711,4.1,559.0,1,5236670013,642.0,386.0,524.0,148.0,437.0,342.0,93.0,3,0.3888888888888889,5,0.5250596658711217,0.16666666666666666,15.625,638.625,0.6003110419906688,0.2301710730948678,0.7808219178082192,0.21232876712328766,39.001560062402504,7.8003120124805,0.32715621845195464,太閤通,0.0,0.0,0.0,559.0,1,7.8003120124805,0.32765737874097006,7.8003120124805,0.7721687772677078,その他の競合がほぼなし（1店舗）。商圏人口642人。飽和度が高い。太閤通駅から327m（徒歩圏）
5236670524,other,1,35.1687833633,136.9488604448,4.8,5.0,1,5236670524,902.0,550.0,751.0,227.0,539.0,322.0,42.0,2,0.5,1,0.22991249005568815,0.5,4.625,619.875,0.6090808416389811,0.2513842746400886,0.5962962962962963,0.07777777777777778,6.485084306095979,6.485084306095979,0.24854102869394884,池下,22894.0,65685.23678772704,0.0,5.0,0,0.0,0.46181630546955627,6.485084306095979,0.7714601673753266,その他の競合がほぼなし（1店舗）。商圏人口902人。池下駅から249m（駅近）
5236670413,other,1,35.1699484864,136.9252960604,4.3,216.0,1,5236670413,1225.0,850.0,984.0,152.0,879.0,665.0,179.0,4,0.28,4,0.48766905330151156,0.2,4.25,814.25,0.6933115823817292,0.12398042414355628,0.7556818181818182,0.2034090909090909,21.447721179624665,5.361930294906166,0.4554659363407756,新栄町,25718.0,46299.86884420242,0.0,216.0,1,5.361930294906166,0.628482972136223,5.361930294906166,0.7711368754715269,"その他の競合がほぼなし（1店舗）。商圏人口1,225人。飽和度が高い。新栄町駅から455m（徒歩圏）"
5236673114,other,1,35.1941887866,136.891100095,4.4,29.0,1,5236673114,989.0,615.0,871.0,281.0,515.0,259.0,49.0,2,0.5555555555555556,2,0.34805091487669054,0.3333333333333333,3.0,448.125,0.6212121212121212,0.28383838383838383,0.501937984496124,0.09496124031007752,12.277470841006753,6.138735420503377,0.22206097528033547,浄心,12744.0,39570.146581426336,0.0,29.0,6,36.83241252302026,0.5067079463364293,6.138735420503377,0.7710788872795944,その他の競合がほぼなし（1店舗）。商圏人口989人。浄心駅から222m（駅近）
5236579331,other,1,35.1637913721,136.9125446144,4.3,49.0,1,5236579331,1344.0,550.0,635.0,110.0,1103.0,956.0,129.0,4,0.28,4,0.48766905330151156,0.2,9.25,824.125,0.40892193308550184,0.08178438661710037,0.8659420289855072,0.11684782608695653,20.161290322580644,5.040322580645161,0.3231253875671593,矢場町,47990.0,113417.91679276849,0.0,49.0,4,20.161290322580644,0.6898864809081527,5.040322580645161,0.7706133769761786,"その他の競合がほぼなし（1店舗）。商圏人口1,344人。飽和度が高い。矢場町駅から323m（徒歩圏）"
5236576423,other,1,35.1362641589,136.9328871809,4.5,246.0,1,5236576423,1241.0,724.0,896.0,210.0,697.0,391.0,85.0,4,0.25,3,0.43595863166268894,0.25,0.375,291.0,0.5829307568438004,0.16908212560386474,0.5601719197707736,0.12177650429799428,15.94896331738437,5.31632110579479,0.38347974443185184,桜山,21106.0,43654.36244863194,0.0,246.0,16,85.06113769271664,0.6367389060887513,5.31632110579479,0.7704086176572037,"その他の競合がほぼなし（1店舗）。商圏人口1,241人。桜山駅から383m（徒歩圏）"
5236670531,other,1,35.1712689301,136.9381668387,4.7,32.0,1,5236670531,1091.0,757.0,962.0,227.0,760.0,589.0,207.0,2,0.5,1,0.22991249005568815,0.5,6.0,577.875,0.6932234432234432,0.2078754578754579,0.7739816031537451,0.2720105124835742,5.777007510109763,5.777007510109763,0.16823685141338535,今池,39620.0,147705.28281716516,0.0,32.0,2,11.554015020219525,0.5593395252837977,5.777007510109763,0.770270888602978,"その他の競合がほぼなし（1店舗）。商圏人口1,091人。今池駅から168m（駅近）"
5236576541,other,1,35.1384503308,136.9454751751,4.3,8.0,1,5236576541,464.0,218.0,322.0,118.0,214.0,96.0,17.0,3,0.375,3,0.43595863166268894,0.25,0.125,93.5,0.46881720430107526,0.2537634408602151,0.44651162790697674,0.07906976744186046,27.17391304347826,9.057971014492754,1.177534787632921,川名,10186.0,7973.168401052404,0.0,8.0,8,72.46376811594203,0.23581011351909184,9.057971014492754,0.7701788167199333,その他の競合がほぼなし（1店舗）。商圏人口464人。飽和度が高い
5236579324,other,1,35.1617340696,136.922414665,4.1,42.0,1,5236579324,83.0,67.0,70.0,4.0,49.0,26.0,3.0,4,0.28,4,0.48766905330151156,0.2,1.125,251.5,0.7976190476190477,0.047619047619047616,0.52,0.06,55.32503457814661,13.831258644536652,0.7446700926505224,鶴舞,32755.0,38778.4536057348,0.0,42.0,11,152.14384508990318,0.0392156862745098,13.831258644536652,0.7690145834203611,その他の競合がほぼなし（1店舗）。商圏人口83人。飽和度が高い。鶴舞駅から745m（徒歩圏）
5236578421,other,1,35.1506969769,136.9332921769,4.2,57.0,1,5236578421,725.0,472.0,590.0,132.0,418.0,252.0,60.0,3,0.375,3,0.43595863166268894,0.25,1.875,502.0,0.650137741046832,0.18181818181818182,0.6014319809069213,0.1431980906921241,21.978021978021978,7.326007326007326,0.1459948076617867,御器所,20380.0,82847.27711822296,0.0,57.0,6,43.956043956043956,0.37048503611971106,7.326007326007326,0.7689969220800822,その他の競合がほぼなし（1店舗）。商圏人口725人。飽和度が高い。御器所駅から146m（駅近）
5236579424,other,1,35.1624404553,136.9368753276,4.5,28.0,1,5236579424,846.0,529.0,699.0,186.0,558.0,422.0,132.0,3,0.3333333333333333,2,0.34805091487669054,0.3333333333333333,1.25,523.375,0.6245572609208973,0.21959858323494688,0.7549194991055456,0.23613595706618962,13.458950201884251,6.729475100942126,0.42850068942249503,吹上,14092.0,26664.109020176784,0.0,28.0,2,13.458950201884251,0.4329205366357069,6.729475100942126,0.7688176691343039,その他の競合がほぼなし（1店舗）。商圏人口846人。吹上駅から429m（徒歩圏）
5236670532,other,1,35.1715923312,136.9424220129,4.2,76.0,1,5236670532,817.0,508.0,698.0,227.0,441.0,233.0,47.0,3,0.375,3,0.43595863166268894,0.25,4.125,683.125,0.6210268948655256,0.2775061124694376,0.5271493212669683,0.10633484162895927,20.59025394646534,6.863417982155114,0.49875467332835305,今池,39620.0,66170.67350766656,0.0,76.0,3,20.59025394646534,0.4179566563467492,6.863417982155114,0.768769939948366,その他の競合がほぼなし（1店舗）。商圏人口817人。飽和度が高い。今池駅から499m（徒歩圏）
5236671013,other,1,35.1773553256,136.8759528571,3.8,39.0,1,5236671013,540.0,349.0,440.0,106.0,306.0,179.0,32.0,2,0.625,3,0.43595863166268894,0.25,1.875,356.125,0.6451016635859519,0.19593345656192238,0.5830618892508144,0.10423452768729642,25.423728813559322,8.474576271186441,0.07542244793121104,亀島,9712.0,55363.49603220905,560000.0,39.0,1,8.474576271186441,0.27502579979360164,8.474576271186441,0.7686854741441651,その他の競合がほぼなし（1店舗）。商圏人口540人。飽和度が高い。亀島駅から75m（駅近）
5236671144,other,1,35.1828549923,136.8991509186,4.1,890.0,1,5236671144,731.6923076923077,449.2307692307692,583.0769230769231,154.30769230769232,445.15384615384613,288.6923076923077,63.23076923076923,3,0.375,3,0.43595863166268894,0.25,0.375,185.66153846153847,0.6131233595800525,0.2106036745406824,0.6470689655172414,0.1417241379310345,21.870794078061913,7.290264692687304,0.5840514488373185,名古屋城,0.0,0.0,0.0,890.0,6,43.741588156123825,0.3739382392633167,7.290264692687304,0.7681101298516582,その他の競合がほぼなし（1店舗）。商圏人口731人。飽和度が高い。名古屋城駅から584m（徒歩圏）
5236671321,other,1,35.1763220992,136.920866769,4.3,130.0,1,5236671321,1014.0,700.0,867.0,191.0,625.0,377.0,89.0,4,0.25,3,0.43595863166268894,0.25,2.875,1094.25,0.6896551724137931,0.18817733990147784,0.6022364217252396,0.14217252396166133,18.13784764207981,6.045949214026603,0.6235154046827664,新栄町,25718.0,35545.89139850637,0.0,130.0,3,18.13784764207981,0.5196078431372549,6.045949214026603,0.7680186241033731,"その他の競合がほぼなし（1店舗）。商圏人口1,014人。新栄町駅から624m（徒歩圏）"
5236577212,cafe,1,35.1433248735,136.9040291531,3.3,306.0,1,5236577212,830.0,562.0,705.0,155.0,618.0,511.0,195.0,7,0.5221606648199446,37,0.8910103420843277,0.02631578947368421,25.25,547.5,0.6762936221419976,0.1865222623345367,0.8255250403877221,0.3150242326332795,251.7006802721088,6.802721088435373,0.22094000447547,金山,139941.0,436034.7667742864,379000.0,306.0,9,61.22448979591836,0.4246646026831785,6.802721088435373,0.7676507316457871,カフェの競合がほぼなし（1店舗）。商圏人口830人。飽和度が高い。金山駅から221m（駅近）
5236579141,other,1,35.1643806363,136.8965795913,4.4,164.0,1,5236579141,958.0,536.0,664.0,143.0,578.0,359.0,39.0,3,0.3333333333333333,2,0.34805091487669054,0.3333333333333333,4.875,544.375,0.5589155370177268,0.14911366006256518,0.6200345423143351,0.06735751295336788,12.51564455569462,6.25782227784731,0.43064943617570245,大須観音,14730.0,27758.438991580824,880000.0,164.0,2,12.51564455569462,0.4907120743034056,6.25782227784731,0.7673891654888297,その他の競合がほぼなし（1店舗）。商圏人口958人。大須観音駅から431m（徒歩圏）
5236670011,other,1,35.1678911746,136.8781132909,4.5,242.0,1,5236670011,740.0,425.0,637.0,221.0,530.0,391.0,101.0,2,0.5,1,0.22991249005568815,0.5,13.875,729.0,0.573549257759784,0.2982456140350877,0.736346516007533,0.1902071563088512,7.246376811594202,7.246376811594202,0.4022410421140497,名古屋,287964.0,573358.1604320753,0.0,242.0,0,0.0,0.3782249742002064,7.246376811594202,0.7673110872808586,その他の競合がほぼなし（1店舗）。商圏人口740人。名古屋駅から402m（徒歩圏）
5236578511,other,1,35.1517900322,136.9383380878,4.0,790.0,1,5236578511,974.0,600.0,833.0,273.0,562.0,321.0,54.0,3,0.375,3,0.43595863166268894,0.25,1.25,532.75,0.6153846153846154,0.28,0.5701598579040853,0.09591474245115453,18.58736059479554,6.195786864931847,0.45318934161252333,御器所,20380.0,36840.912264493694,326000.0,790.0,4,24.783147459727388,0.49896800825593396,6.195786864931847,0.7670019239176386,その他の競合がほぼなし（1店舗）。商圏人口974人。御器所駅から453m（徒歩圏）
5236670043,chinese,1,35.1730559736,136.8824893896,3.9,365.0,1,5236670043,51.0,22.0,40.0,18.0,33.0,20.0,0.0,7,0.4359504132231405,43,0.9053301511535402,0.022727272727272728,36.375,355.1041666666667,0.4230769230769231,0.34615384615384615,0.5882352941176471,0.0,622.2865412445732,14.471780028943561,0.2552412920287203,名古屋,287964.0,810615.2253739659,4335000.0,365.0,11,159.18958031837917,0.022703818369453045,14.471780028943561,0.7669844371982503,中華の競合がほぼなし（1店舗）。商圏人口51人。飽和度が高い。名古屋駅から255m（駅近）
5236674312,other,1,35.202030241,136.9187232418,4.3,121.0,1,5236674312,1173.0,527.0,1037.0,547.0,591.0,260.0,19.0,2,0.5,1,0.22991249005568815,0.5,0.5,225.0,0.4488926746166951,0.46592844974446335,0.4391891891891892,0.03209459459459459,5.515719801434087,5.515719801434087,0.6780433921440661,志賀本通,12888.0,16564.6288242155,208000.0,121.0,1,5.515719801434087,0.6016511867905057,5.515719801434087,0.7666682227710445,"その他の競合がほぼなし（1店舗）。商圏人口1,173人。志賀本通駅から678m（徒歩圏）"
5236579422,other,1,35.1604084358,136.9357474439,4.3,27.0,1,5236579422,691.0,477.0,584.0,123.0,476.0,330.0,90.0,2,0.5,1,0.22991249005568815,0.5,1.25,394.125,0.6893063583815029,0.1777456647398844,0.6918238993710691,0.18867924528301888,7.513148009015778,7.513148009015778,0.1834302527523244,吹上,14092.0,49719.46312419337,0.0,27.0,1,7.513148009015778,0.35294117647058826,7.513148009015778,0.7665664307503778,その他の競合がほぼなし（1店舗）。商圏人口691人。吹上駅から183m（駅近）
5236670434,other,1,35.1740661468,136.9282259339,4.3,281.0,1,5236670434,868.0,621.0,734.0,136.0,561.0,385.0,102.0,2,0.5,1,0.22991249005568815,0.5,3.0,772.125,0.714614499424626,0.1565017261219793,0.6850533807829181,0.18149466192170818,6.631299734748011,6.631299734748011,0.1348933310038421,車道,12282.0,52287.56366777865,0.0,281.0,3,19.893899204244033,0.44427244582043346,6.631299734748011,0.7663877908814656,その他の競合がほぼなし（1店舗）。商圏人口868人。車道駅から135m（駅近）
5236578242,izakaya,1,35.1545934572,136.9097199162,0.0,0.0,0,5236578242,1476.0,727.0,993.0,281.0,1008.0,705.0,143.0,3,0.44000000000000006,4,0.48766905330151156,0.2,4.0,1341.25,0.4922139471902505,0.19025050778605282,0.6987115956392468,0.14172447968285432,18.90359168241966,4.725897920604915,0.4153922621779362,上前津,39900.0,77416.76181049213,0.0,0.0,0,0.0,0.7579979360165119,4.725897920604915,0.7660183490497835,"居酒屋の競合がほぼなし（1店舗）。商圏人口1,476人。上前津駅から415m（徒歩圏）"
5236672134,other,1,35.1898970666,136.8917168642,4.1,163.0,1,5236672134,844.0,512.0,692.0,199.0,429.0,241.0,72.0,4,0.25,3,0.43595863166268894,0.25,3.125,642.75,0.6059171597633136,0.23550295857988165,0.5604651162790698,0.16744186046511628,20.21563342318059,6.738544474393531,0.26928851813962645,浄心,12744.0,34509.602584452805,0.0,163.0,2,13.477088948787062,0.43188854489164086,6.738544474393531,0.765871534253543,その他の競合がほぼなし（1店舗）。商圏人口844人。飽和度が高い。浄心駅から269m（駅近）
5236578241,other,1,35.1557732385,136.9062562854,3.9,128.0,1,5236578241,1755.0,953.0,1310.0,388.0,1027.0,617.0,107.0,2,0.5555555555555556,2,0.34805091487669054,0.3333333333333333,3.875,1068.875,0.5427107061503417,0.22095671981776766,0.6001945525291829,0.10408560311284047,8.350730688935283,4.175365344467641,0.19614055196267335,上前津,39900.0,134733.3208355374,970000.0,128.0,3,12.526096033402924,0.9019607843137255,4.175365344467641,0.7657811936372564,"その他の競合がほぼなし（1店舗）。商圏人口1,755人。上前津駅から196m（駅近）"
5236578513,other,1,35.1521625017,136.9388146996,4.2,68.0,1,5236578513,960.0,635.0,783.0,170.0,526.0,298.0,101.0,2,0.5,1,0.22991249005568815,0.5,0.875,241.25,0.6607700312174818,0.1768990634755463,0.5654648956356736,0.19165085388994307,6.25,6.25,0.5121654686547207,御器所,20380.0,33291.65241023243,0.0,68.0,3,18.75,0.4917440660474716,6.25,0.7655710553919846,その他の競合がほぼなし（1店舗）。商圏人口960人。御器所駅から512m（徒歩圏）
5236579442,other,1,35.1628895732,136.9369633592,4.2,316.0,1,5236579442,984.0,616.0,781.0,199.0,629.0,425.0,89.0,2,0.5,1,0.22991249005568815,0.5,1.125,650.125,0.6253807106598985,0.2020304568527919,0.6746031746031746,0.14126984126984127,6.157635467980296,6.157635467980296,0.4784639486988138,吹上,14092.0,24361.06870911884,0.0,316.0,3,18.47290640394089,0.5041279669762642,6.157635467980296,0.7655451783512893,その他の競合がほぼなし（1店舗）。商圏人口984人。吹上駅から478m（徒歩圏）
5236579241,washoku,1,35.1644797927,136.9079572102,4.5,5385.0,1,5236579241,81.0,30.0,52.0,22.0,49.0,27.0,0.0,7,0.2098298676748582,22,0.8369132856006364,0.043478260869565216,25.25,427.125,0.36585365853658536,0.2682926829268293,0.54,0.0,305.1317614424411,13.869625520110958,0.12158435314656255,矢場町,47990.0,216576.66400415002,0.0,5385.0,4,55.47850208044383,0.038183694530443756,13.869625520110958,0.7652270060407828,和食の競合がほぼなし（1店舗）。商圏人口81人。飽和度が高い。矢場町駅から122m（駅近）
5236577442,other,1,35.1479059314,136.9343905163,4.0,71.0,1,5236577442,902.0,607.0,720.0,144.0,565.0,376.0,77.0,4,0.25,3,0.43595863166268894,0.25,2.125,720.625,0.6722037652270211,0.15946843853820597,0.6643109540636042,0.13604240282685512,19.455252918287936,6.485084306095979,0.18802282430627085,御器所,20380.0,70758.281219855,0.0,71.0,5,32.425421530479895,0.46181630546955627,6.485084306095979,0.764937963729692,その他の競合がほぼなし（1店舗）。商圏人口902人。御器所駅から188m（駅近）
5236673422,washoku,1,35.1920070814,136.9360543229,3.5,834.0,1,5236673422,684.0,531.0,626.0,106.0,426.0,257.0,71.0,4,0.6294896030245748,22,0.8369132856006364,0.043478260869565216,6.625,657.0,0.7751824817518248,0.15474452554744525,0.6018735362997658,0.16627634660421545,166.16314199395768,7.55287009063444,0.08569009273267454,大曽根,53523.0,288238.3180079157,610000.0,834.0,9,67.97583081570995,0.3493292053663571,7.55287009063444,0.7647960590200774,和食の競合がほぼなし（1店舗）。商圏人口684人。飽和度が高い。大曽根駅から86m（駅近）
5236670443,other,1,35.1744567335,136.9313034301,4.1,104.0,1,5236670443,960.0,671.0,833.0,186.0,596.0,381.0,80.0,3,0.3333333333333333,2,0.34805091487669054,0.3333333333333333,2.375,555.25,0.6982310093652445,0.1935483870967742,0.6381909547738693,0.13400335008375208,12.5,6.25,0.19171623212337524,車道,12282.0,42102.559431130954,0.0,104.0,11,68.75,0.4917440660474716,6.25,0.7645106725354017,その他の競合がほぼなし（1店舗）。商圏人口960人。車道駅から192m（駅近）
5236670513,other,1,35.1694610789,136.9381363516,3.4,274.0,1,5236670513,682.0,550.0,616.0,82.0,548.0,463.0,183.0,4,0.33333333333333337,5,0.5250596658711217,0.16666666666666666,12.75,881.0,0.8052708638360175,0.12005856515373353,0.843351548269581,0.3333333333333333,37.82148260211801,7.564296520423602,0.08917084185884576,今池,39620.0,209440.3112587689,0.0,274.0,1,7.564296520423602,0.34829721362229105,7.564296520423602,0.7642751806070824,その他の競合がほぼなし（1店舗）。商圏人口682人。飽和度が高い。今池駅から89m（駅近）
5236673331,other,1,35.196976225,136.9128100509,4.1,91.0,1,5236673331,889.0,659.0,771.0,143.0,563.0,383.0,148.0,2,0.5,1,0.22991249005568815,0.5,3.875,304.375,0.7404494382022472,0.16067415730337078,0.6790780141843972,0.2624113475177305,6.540222367560497,6.540222367560497,0.24026563465751727,黒川,24806.0,72901.86687517719,0.0,91.0,5,32.701111837802486,0.4551083591331269,6.540222367560497,0.7641965941447764,その他の競合がほぼなし（1店舗）。商圏人口889人。黒川駅から240m（駅近）
5236670141,other,1,35.1711228655,136.8940692867,3.5,79.0,1,5236670141,372.0,258.0,288.0,41.0,213.0,109.0,11.0,2,0.625,3,0.43595863166268894,0.25,14.25,440.25,0.6916890080428955,0.10991957104557641,0.5093457943925234,0.0514018691588785,29.64426877470356,9.881422924901186,0.3683672905697648,丸の内,29788.0,63599.65907047683,1700000.0,79.0,1,9.881422924901186,0.18833849329205365,9.881422924901186,0.764163921331407,その他の競合がほぼなし（1店舗）。商圏人口372人。飽和度が高い。丸の内駅から368m（徒歩圏）
5236660911,other,1,35.1669703782,136.8640123278,4.0,1.0,1,5236660911,842.0,528.0,709.0,213.0,519.0,342.0,99.0,2,0.5,1,0.22991249005568815,0.5,0.625,399.5,0.6263345195729537,0.2526690391459075,0.6576923076923077,0.19038461538461537,6.747638326585695,6.747638326585695,0.6367283869752519,中村日赤,8516.0,11559.212527378924,0.0,1.0,4,26.99055330634278,0.4308565531475748,6.747638326585695,0.7634944668619775,その他の競合がほぼなし（1店舗）。商圏人口842人。中村日赤駅から637m（徒歩圏）
5236566844,other,1,35.1401191614,136.860085032,4.0,88.0,1,5236566844,304.0,231.0,253.0,30.0,172.0,91.0,24.0,2,0.5,1,0.22991249005568815,0.5,0.375,140.375,0.7573770491803279,0.09836065573770492,0.5260115606936416,0.13872832369942195,10.593220338983052,10.593220338983052,0.14535509689197224,荒子,3800.0,15487.756513463046,0.0,88.0,5,52.96610169491525,0.15325077399380804,10.593220338983052,0.76348047569532,その他の競合がほぼなし（1店舗）。商圏人口304人。荒子駅から145m（駅近）
5236579144,other,1,35.1664512713,136.8980741084,4.2,776.0,1,5236579144,255.0,140.0,159.0,20.0,173.0,137.0,16.0,2,0.5,1,0.22991249005568815,0.5,20.625,581.125,0.546875,0.078125,0.7873563218390804,0.09195402298850575,11.1731843575419,11.1731843575419,0.31922790687978686,伏見,77082.0,183866.57647317162,2080000.0,776.0,2,22.3463687150838,0.12796697626418987,11.1731843575419,0.7633969635385133,その他の競合がほぼなし（1店舗）。商圏人口255人。伏見駅から319m（徒歩圏）
5236670214,cafe,6,35.17008520225,136.90527483208334,3.983333333333333,4479.0,6,5236670214,29.0,4.0,18.0,14.0,23.0,10.0,0.0,8,0.273253346707303,155,0.9956245027844073,0.037267080745341616,61.125,173.4903846153846,0.13333333333333333,0.4666666666666667,0.4166666666666667,0.0,2316.8908819133035,89.68609865470852,0.2507478480649445,栄,160200.0,456738.3688419304,0.0,746.5,10,149.47683109118086,0.011351909184726523,89.68609865470852,0.7632852463513489,カフェは6店舗で中程度の競合。商圏人口29人。飽和度が高い。栄駅から251m（駅近）
5236670033,other,1,35.1741890705,136.87808612,4.0,129.0,1,5236670033,799.0,487.0,674.0,205.0,485.0,329.0,58.0,2,0.5,1,0.22991249005568815,0.5,5.5,413.125,0.60875,0.25625,0.676954732510288,0.11934156378600823,6.949270326615705,6.949270326615705,0.39024752528781587,亀島,9712.0,19810.40086698704,0.0,129.0,1,6.949270326615705,0.4086687306501548,6.949270326615705,0.7629685906430654,その他の競合がほぼなし（1店舗）。商圏人口799人。亀島駅から390m（徒歩圏）
5236671234,other,1,35.1832581348,136.9045651555,3.9,400.0,1,5236671234,753.6,479.7,570.0,105.8,441.6,275.3,44.3,3,0.3333333333333333,2,0.34805091487669054,0.3333333333333333,0.375,113.95,0.6357010336602174,0.14020673204346673,0.6220063262539539,0.1000903750564844,14.351320321469577,7.175660160734789,0.20279335396864454,名古屋城,0.0,0.0,0.0,400.0,6,43.05396096440873,0.38524251805985554,7.175660160734789,0.7626077118640229,その他の競合がほぼなし（1店舗）。商圏人口753人。名古屋城駅から203m（駅近）
5236671324,izakaya,1,35.1790918459,136.9233483971,0.0,0.0,0,5236671324,1568.0,1007.0,1301.0,358.0,786.0,378.0,84.0,3,0.375,3,0.43595863166268894,0.25,1.25,791.875,0.6418100701083492,0.22817080943275972,0.48030495552731894,0.10673443456162643,13.58695652173913,4.528985507246377,0.8382369389590716,車道,12282.0,13090.509966092663,0.0,0.0,3,13.58695652173913,0.8054695562435501,4.528985507246377,0.7625201277898428,"居酒屋の競合がほぼなし（1店舗）。商圏人口1,568人"
5236671344,izakaya,1,35.1815195991,136.9222489598,0.0,0.0,0,5236671344,943.0,593.0,756.0,184.0,482.0,246.0,42.0,3,0.375,3,0.43595863166268894,0.25,0.75,333.875,0.628177966101695,0.19491525423728814,0.5093167701863354,0.08695652173913043,18.951358180669615,6.317119393556538,0.7649706631001552,尼ヶ坂,3562.0,4118.058741129299,0.0,0.0,1,6.317119393556538,0.48297213622291024,6.317119393556538,0.7625168612756741,居酒屋の競合がほぼなし（1店舗）。商圏人口943人。尼ヶ坂駅から765m（徒歩圏）
5236674123,other,1,35.2037778137,136.8958001708,3.9,160.0,1,5236674123,1106.0,673.0,920.0,281.0,549.0,241.0,25.0,2,0.5,1,0.22991249005568815,0.5,0.875,253.125,0.6079494128274616,0.25383920505871727,0.4381818181818182,0.045454545454545456,5.72737686139748,5.72737686139748,0.4390532964899361,庄内通,12982.0,24082.96189733508,0.0,160.0,4,22.90950744558992,0.567079463364293,5.72737686139748,0.7624293660275251,"その他の競合がほぼなし（1店舗）。商圏人口1,106人。庄内通駅から439m（徒歩圏）"
5236670041,ramen,1,35.170842342,136.8827413925,4.0,310.0,1,5236670041,323.4166666666667,191.58333333333334,253.33333333333334,76.83333333333333,219.58333333333334,159.25,34.416666666666664,8,0.22337562475970782,50,0.930389817024662,0.0196078431372549,53.5,143.72916666666669,0.5905471358849217,0.23683534549190852,0.7219493766528144,0.15602568945976575,518.986246864458,10.379724937289161,0.01993072027202577,名古屋,287964.0,2401086.2216689987,0.0,310.0,26,269.8728483695182,0.16326969384244927,10.379724937289161,0.7624096661465485,ラーメンの競合がほぼなし（1店舗）。商圏人口323人。飽和度が高い。名古屋駅から20m（駅近）
5236670314,italian,1,35.1698921889,136.9174345233,3.6,173.0,1,5236670314,881.0,402.0,664.0,266.0,583.0,459.0,75.0,5,0.28268809349890434,36,0.8870326173428799,0.02702702702702703,16.125,505.875,0.4557823129251701,0.30158730158730157,0.785958904109589,0.1284246575342466,236.68639053254435,6.574621959237343,0.28318187573470893,新栄町,25718.0,67116.95314578377,0.0,173.0,7,46.022353714661406,0.45098039215686275,6.574621959237343,0.7623761893899028,イタリアンの競合がほぼなし（1店舗）。商圏人口881人。飽和度が高い。新栄町駅から283m（駅近）
5236672031,other,1,35.1879396871,136.8762355035,4.9,19.0,1,5236672031,823.0,474.0,752.0,301.0,418.0,259.0,94.0,1,0.0,0,0.08273667462211615,1.0,0.5,395.125,0.5752427184466019,0.36529126213592233,0.6181384248210023,0.2243436754176611,0.0,6.83526999316473,0.5544063717595603,栄生,11969.0,18289.858590187458,223000.0,19.0,1,6.83526999316473,0.42105263157894735,6.83526999316473,0.7623477917125959,その他の競合がほぼなし（1店舗）。商圏人口823人。栄生駅から554m（徒歩圏）
5236670042,italian,3,35.172119762633336,136.8854189838,3.5,775.0,3,5236670042,24.0,10.0,23.0,13.0,16.0,9.0,0.0,8,0.3285003057035548,104,0.9840891010342084,0.028037383177570093,50.875,273.65625,0.4,0.52,0.5294117647058824,0.0,1566.2650602409637,45.18072289156626,0.1665849400410512,名古屋,287964.0,1080196.052919031,10260000.0,258.3333333333333,13,195.78313253012047,0.008771929824561403,45.18072289156626,0.7619120550703268,イタリアンの競合が少ない（3店舗）。商圏人口24人。飽和度が高い。名古屋駅から167m（駅近）
5236672212,other,1,35.1834395039,136.9045954241,3.7,173.0,1,5236672212,158.0,137.0,137.0,3.0,132.0,119.0,87.0,2,0.5,1,0.22991249005568815,0.5,0.625,195.65,0.8616352201257862,0.018867924528301886,0.8947368421052632,0.6541353383458647,12.531328320802004,12.531328320802004,0.22079094096296906,名古屋城,0.0,0.0,0.0,173.0,3,37.59398496240601,0.07791537667698659,12.531328320802004,0.7602857892665067,その他の競合がほぼなし（1店舗）。商圏人口158人。名古屋城駅から221m（駅近）
5236576433,other,1,35.1402035585,136.9266120272,4.7,79.0,1,5236576433,950.0,601.0,767.0,200.0,443.0,187.0,55.0,1,0.0,0,0.08273667462211615,1.0,0.5,428.125,0.6319663512092534,0.2103049421661409,0.42117117117117114,0.12387387387387387,0.0,6.289308176100628,0.6122061632316874,桜山,21106.0,29634.67755492312,260000.0,79.0,8,50.31446540880503,0.48658410732714136,6.289308176100628,0.7602496311254873,その他の競合がほぼなし（1店舗）。商圏人口950人。桜山駅から612m（徒歩圏）
5236670422,washoku,1,35.1667885571,136.9362174488,3.6,257.0,1,5236670422,790.0,518.0,706.0,205.0,563.0,470.0,177.0,4,0.4173553719008265,21,0.830151153540175,0.045454545454545456,10.0,840.0,0.6548672566371682,0.25916561314791403,0.8333333333333334,0.31382978723404253,146.85314685314682,6.9930069930069925,0.36250731883089704,今池,39620.0,85663.5092827276,696000.0,257.0,17,118.88111888111887,0.4040247678018576,6.9930069930069925,0.7595296031568992,和食の競合がほぼなし（1店舗）。商圏人口790人。飽和度が高い。今池駅から363m（徒歩圏）
5236672444,washoku,1,35.1905353069,136.9361743661,3.8,40.0,1,5236672444,603.0,425.0,512.0,105.0,328.0,185.0,36.0,5,0.42403628117913833,20,0.8245823389021479,0.047619047619047616,5.5,651.25,0.7036423841059603,0.173841059602649,0.5623100303951368,0.1094224924012158,160.90104585679808,8.045052292839904,0.13357152586138668,大曽根,53523.0,229150.3632671531,0.0,40.0,12,96.54062751407885,0.3075335397316821,8.045052292839904,0.7592362312809523,和食の競合がほぼなし（1店舗）。商圏人口603人。飽和度が高い。大曽根駅から134m（駅近）
5236578432,izakaya,1,35.1549183886,136.931087215,0.0,0.0,0,5236578432,766.0,469.0,627.0,195.0,382.0,192.0,71.0,3,0.3333333333333333,2,0.34805091487669054,0.3333333333333333,0.25,127.5,0.6114732724902217,0.2542372881355932,0.5013054830287206,0.185378590078329,14.22475106685633,7.112375533428165,0.5805731068846335,吹上,14092.0,20706.078241185613,0.0,0.0,1,7.112375533428165,0.39164086687306504,7.112375533428165,0.7591366532550816,居酒屋の競合がほぼなし（1店舗）。商圏人口766人。吹上駅から581m（徒歩圏）
5236672313,izakaya,1,35.1871715586,136.9150324368,0.0,0.0,0,5236672313,729.0,492.0,605.0,140.0,383.0,196.0,45.0,3,0.3333333333333333,2,0.34805091487669054,0.3333333333333333,0.625,287.25,0.673972602739726,0.1917808219178082,0.5104166666666666,0.1171875,14.609203798392985,7.304601899196492,0.11074890405699868,清水,16197.0,76854.4921857311,0.0,0.0,2,14.609203798392985,0.37254901960784315,7.304601899196492,0.759092282179657,居酒屋の競合がほぼなし（1店舗）。商圏人口729人。清水駅から111m（駅近）
5236578142,izakaya,1,35.1545128854,136.8973451609,0.0,0.0,0,5236578142,1099.0,666.0,784.0,146.0,596.0,317.0,40.0,3,0.3333333333333333,2,0.34805091487669054,0.3333333333333333,2.0,653.375,0.6054545454545455,0.13272727272727272,0.5309882747068677,0.06700167504187604,11.500862564692351,5.750431282346176,0.6951391757467408,大須観音,14730.0,18525.058819000566,680000.0,0.0,0,0.0,0.5634674922600619,5.750431282346176,0.7589775802890047,"居酒屋の競合がほぼなし（1店舗）。商圏人口1,099人。大須観音駅から695m（徒歩圏）"
5236576214,izakaya,1,35.1355269163,136.9059684343,0.0,0.0,0,5236576214,575.0,360.0,454.0,115.0,291.0,133.0,23.0,2,0.5,1,0.22991249005568815,0.5,0.375,29.25,0.625,0.1996527777777778,0.4554794520547945,0.07876712328767123,8.23045267489712,8.23045267489712,0.39490955665709304,西高蔵,4668.0,9432.02639191368,309000.0,0.0,1,8.23045267489712,0.2930856553147575,8.23045267489712,0.758970661517458,居酒屋の競合がほぼなし（1店舗）。商圏人口575人。西高蔵駅から395m（徒歩圏）
5236672413,izakaya,1,35.1862966285,136.9251579776,0.0,0.0,0,5236672413,1365.0,840.0,1067.0,285.0,629.0,246.0,13.0,2,0.5,1,0.22991249005568815,0.5,0.875,390.125,0.6149341142020498,0.20863836017569545,0.3904761904761905,0.020634920634920634,4.987531172069825,4.987531172069825,0.46555088262973093,森下,110281.0,194997.48543793103,414000.0,0.0,3,14.962593516209475,0.7007223942208463,4.987531172069825,0.7589513928038651,"居酒屋の競合がほぼなし（1店舗）。商圏人口1,365人。飽和度が低く参入余地あり。森下駅から466m（徒歩圏）"
5236670431,izakaya,1,35.1713016647,136.9252321279,0.0,0.0,0,5236670431,659.0,462.0,584.0,134.0,402.0,250.0,63.0,2,0.5,1,0.22991249005568815,0.5,4.125,838.75,0.7,0.20303030303030303,0.6203473945409429,0.15632754342431762,7.698229407236335,7.698229407236335,0.46223792972499345,車道,12282.0,21844.844238821588,0.0,0.0,0,0.0,0.3364293085655315,7.698229407236335,0.7585734423935767,居酒屋の競合がほぼなし（1店舗）。商圏人口659人。車道駅から462m（徒歩圏）
5236670342,izakaya,1,35.1713113774,136.9248896573,0.0,0.0,0,5236670342,753.0,576.0,662.0,94.0,543.0,409.0,106.0,3,0.3333333333333333,2,0.34805091487669054,0.3333333333333333,5.75,633.75,0.7639257294429708,0.1246684350132626,0.7518382352941176,0.1948529411764706,14.357501794687723,7.178750897343861,0.41525735236991834,新栄町,25718.0,49912.92192476333,878000.0,0.0,0,0.0,0.3849329205366357,7.178750897343861,0.7585443632850503,居酒屋の競合がほぼなし（1店舗）。商圏人口753人。新栄町駅から415m（徒歩圏）
5236577523,other,1,35.1455209492,136.9467459189,4.5,77.0,1,5236577523,763.0,432.0,642.0,235.0,354.0,136.0,33.0,1,0.0,0,0.08273667462211615,1.0,0.125,93.875,0.5654450261780105,0.3075916230366492,0.38309859154929576,0.09295774647887324,0.0,7.127583749109052,0.39662540834215143,川名,10186.0,20510.42864279374,0.0,77.0,4,28.510334996436207,0.39009287925696595,7.127583749109052,0.7581917578000359,その他の競合がほぼなし（1店舗）。商圏人口763人。川名駅から397m（徒歩圏）
