station_name,lat,lng,line,prefecture
高尾,35.642026,139.282288,JR中央本線,東京都
相模湖,35.617335,139.1885,JR中央本線,神奈川県
藤野,35.615918,139.15239,JR中央本線,神奈川県
上野原,35.618747,139.115787,JR中央本線,山梨県
四方津,35.614252,139.072572,JR中央本線,山梨県
梁川,35.605271,139.038076,JR中央本線,山梨県
鳥沢,35.608118,139.003345,JR中央本線,山梨県
猿橋,35.61288,138.968388,JR中央本線,山梨県
大月,35.613222,138.942729,JR中央本線,山梨県
初狩,35.594274,138.883966,JR中央本線,山梨県
笹子,35.603921,138.825205,JR中央本線,山梨県
甲斐大和,35.639364,138.781632,JR中央本線,山梨県
勝沼ぶどう郷,35.67279,138.74323,JR中央本線,山梨県
塩山,35.705327,138.734796,JR中央本線,山梨県
東山梨,35.694313,138.703026,JR中央本線,山梨県
山梨市,35.684961,138.683003,JR中央本線,山梨県
春日居町,35.673491,138.659,JR中央本線,山梨県
石和温泉,35.657603,138.634577,JR中央本線,山梨県
酒折,35.659486,138.598852,JR中央本線,山梨県
甲府,35.667054,138.569015,JR中央本線,山梨県
竜王,35.668764,138.519298,JR中央本線,山梨県
塩崎,35.687734,138.487521,JR中央本線,山梨県
韮崎,35.709711,138.451357,JR中央本線,山梨県
新府,35.736802,138.433093,JR中央本線,山梨県
穴山,35.75107,138.413858,JR中央本線,山梨県
日野春,35.79065,138.394316,JR中央本線,山梨県
長坂,35.827061,138.366459,JR中央本線,山梨県
小淵沢,35.863808,138.316351,JR中央本線,山梨県
信濃境,35.884952,138.275419,JR中央本線,長野県
富士見,35.912183,138.238071,JR中央本線,長野県
すずらんの里,35.930288,138.211775,JR中央本線,長野県
青柳,35.942581,138.197612,JR中央本線,長野県
茅野,35.995062,138.151674,JR中央本線,長野県
上諏訪,36.046618,138.116306,JR中央本線,長野県
下諏訪,36.071949,138.084953,JR中央本線,長野県
岡谷,36.056693,138.045001,JR中央本線,長野県
みどり湖,36.094176,137.981928,JR中央本線,長野県
塩尻,36.114364,137.947961,JR中央本線,長野県
洗馬,36.087164,137.916842,JR中央本線,長野県
日出塩,36.049004,137.894804,JR中央本線,長野県
贄川,36.014008,137.86091,JR中央本線,長野県
木曽平沢,35.979108,137.832613,JR中央本線,長野県
奈良井,35.969476,137.816195,JR中央本線,長野県
藪原,35.930152,137.784368,JR中央本線,長野県
宮ノ越,35.888337,137.763794,JR中央本線,長野県
原野,35.871245,137.741536,JR中央本線,長野県
木曽福島,35.843669,137.69343,JR中央本線,長野県
上松,35.784068,137.693283,JR中央本線,長野県
倉本,35.732939,137.714338,JR中央本線,長野県
須原,35.69769,137.694844,JR中央本線,長野県
大桑,35.684477,137.664224,JR中央本線,長野県
野尻,35.673042,137.636152,JR中央本線,長野県
十二兼,35.645418,137.617569,JR中央本線,長野県
南木曽,35.598896,137.608672,JR中央本線,長野県
田立,35.588281,137.54893,JR中央本線,長野県
坂下,35.574218,137.531094,JR中央本線,岐阜県
落合川,35.525116,137.530034,JR中央本線,岐阜県
中津川,35.50036,137.502867,JR中央本線,岐阜県
美乃坂本,35.479286,137.450364,JR中央本線,岐阜県
恵那,35.455063,137.407764,JR中央本線,岐阜県
武並,35.437938,137.35417,JR中央本線,岐阜県
釜戸,35.411103,137.30501,JR中央本線,岐阜県
瑞浪,35.369081,137.252017,JR中央本線,岐阜県
土岐市,35.359708,137.182082,JR中央本線,岐阜県
多治見,35.334774,137.120294,JR中央本線,岐阜県
古虎渓,35.302955,137.101011,JR中央本線,岐阜県
定光寺,35.278015,137.080981,JR中央本線,愛知県
高蔵寺,35.26434,137.043766,JR中央本線,愛知県
神領,35.256234,137.010006,JR中央本線,愛知県
春日井,35.243139,136.985307,JR中央本線,愛知県
勝川,35.22982,136.956285,JR中央本線,愛知県
新守山,35.207283,136.951207,JR中央本線,愛知県
大曽根,35.191508,136.937161,JR中央本線,愛知県
千種,35.170168,136.930665,JR中央本線,愛知県
鶴舞,35.156416,136.917436,JR中央本線,愛知県
金山,35.142928,136.900517,JR中央本線,愛知県
名古屋,35.170694,136.881637,JR中央本線,愛知県
東京,35.681391,139.766103,JR東海道本線,東京都
新橋,35.666195,139.758587,JR東海道本線,東京都
品川,35.62876,139.738999,JR東海道本線,東京都
川崎,35.531311,139.697485,JR東海道本線,神奈川県
横浜,35.466195,139.622704,JR東海道本線,神奈川県
戸塚,35.400432,139.534282,JR東海道本線,神奈川県
大船,35.353466,139.531127,JR東海道本線,神奈川県
藤沢,35.338882,139.487293,JR東海道本線,神奈川県
辻堂,35.336846,139.447106,JR東海道本線,神奈川県
茅ヶ崎,35.330741,139.407197,JR東海道本線,神奈川県
平塚,35.327647,139.349063,JR東海道本線,神奈川県
大磯,35.311299,139.313388,JR東海道本線,神奈川県
二宮,35.298644,139.256925,JR東海道本線,神奈川県
国府津,35.280832,139.212932,JR東海道本線,神奈川県
鴨宮,35.275744,139.180147,JR東海道本線,神奈川県
小田原,35.256225,139.155772,JR東海道本線,神奈川県
早川,35.238875,139.145014,JR東海道本線,神奈川県
根府川,35.202455,139.138504,JR東海道本線,神奈川県
真鶴,35.156837,139.132148,JR東海道本線,神奈川県
湯河原,35.146178,139.102142,JR東海道本線,神奈川県
熱海,35.103573,139.077679,JR東海道本線,静岡県
函南,35.108773,138.970984,JR東海道本線,静岡県
三島,35.126253,138.911133,JR東海道本線,静岡県
沼津,35.103011,138.860104,JR東海道本線,静岡県
片浜,35.11825,138.818937,JR東海道本線,静岡県
原,35.124915,138.793387,JR東海道本線,静岡県
東田子の浦,35.136255,138.745441,JR東海道本線,静岡県
吉原,35.143845,138.702768,JR東海道本線,静岡県
富士,35.151497,138.651225,JR東海道本線,静岡県
富士川,35.141119,138.618571,JR東海道本線,静岡県
新蒲原,35.119599,138.608117,JR東海道本線,静岡県
蒲原,35.114005,138.582752,JR東海道本線,静岡県
由比,35.097108,138.552756,JR東海道本線,静岡県
興津,35.052539,138.521865,JR東海道本線,静岡県
清水,35.023248,138.488958,JR東海道本線,静岡県
草薙,35.002854,138.442025,JR東海道本線,静岡県
東静岡,34.985256,138.413118,JR東海道本線,静岡県
静岡,34.971629,138.388579,JR東海道本線,静岡県
安倍川,34.940961,138.364029,JR東海道本線,静岡県
用宗,34.922512,138.36006,JR東海道本線,静岡県
焼津,34.872261,138.318457,JR東海道本線,静岡県
西焼津,34.859824,138.28552,JR東海道本線,静岡県
藤枝,34.849511,138.252748,JR東海道本線,静岡県
六合,34.836436,138.203502,JR東海道本線,静岡県
島田,34.830159,138.173436,JR東海道本線,静岡県
金谷,34.819049,138.125578,JR東海道本線,静岡県
菊川,34.76176,138.085648,JR東海道本線,静岡県
掛川,34.769463,138.014937,JR東海道本線,静岡県
愛野,34.752257,137.961663,JR東海道本線,静岡県
袋井,34.741377,137.92596,JR東海道本線,静岡県
御厨,34.718469,137.885315,JR東海道本線,静岡県
磐田,34.710132,137.852244,JR東海道本線,静岡県
豊田町,34.7121,137.82013,JR東海道本線,静岡県
天竜川,34.716994,137.77923,JR東海道本線,静岡県
浜松,34.703866,137.734759,JR東海道本線,静岡県
高塚,34.690425,137.681303,JR東海道本線,静岡県
舞阪,34.685701,137.626422,JR東海道本線,静岡県
弁天島,34.690125,137.603058,JR東海道本線,静岡県
新居町,34.694276,137.568953,JR東海道本線,静岡県
鷲津,34.716819,137.546116,JR東海道本線,静岡県
新所原,34.723205,137.484399,JR東海道本線,静岡県
二川,34.725809,137.438966,JR東海道本線,愛知県
豊橋,34.762734,137.382128,JR東海道本線,愛知県
西小坂井,34.79708,137.352499,JR東海道本線,愛知県
愛知御津,34.812624,137.316492,JR東海道本線,愛知県
三河大塚,34.815744,137.28287,JR東海道本線,愛知県
三河三谷,34.818546,137.247795,JR東海道本線,愛知県
蒲郡,34.823078,137.226459,JR東海道本線,愛知県
三河塩津,34.825295,137.201261,JR東海道本線,愛知県
三ヶ根,34.836449,137.176348,JR東海道本線,愛知県
幸田,34.859926,137.16447,JR東海道本線,愛知県
相見,34.886833,137.160389,JR東海道本線,愛知県
岡崎,34.925417,137.157243,JR東海道本線,愛知県
西岡崎,34.946572,137.123187,JR東海道本線,愛知県
安城,34.959986,137.08716,JR東海道本線,愛知県
三河安城,34.96968,137.060918,JR東海道本線,愛知県
東刈谷,34.97741,137.043525,JR東海道本線,愛知県
野田新町,34.984212,137.026355,JR東海道本線,愛知県
刈谷,34.991156,137.008878,JR東海道本線,愛知県
逢妻,34.998215,136.990544,JR東海道本線,愛知県
大府,35.008665,136.961727,JR東海道本線,愛知県
共和,35.035245,136.954599,JR東海道本線,愛知県
南大高,35.055403,136.948244,JR東海道本線,愛知県
大高,35.069244,136.940242,JR東海道本線,愛知県
笠寺,35.095113,136.926321,JR東海道本線,愛知県
熱田,35.130028,136.910502,JR東海道本線,愛知県
金山,35.143323,136.90075,JR東海道本線,愛知県
尾頭橋,35.146981,136.89102,JR東海道本線,愛知県
枇杷島,35.198681,136.861816,JR東海道本線,愛知県
清洲,35.225406,136.834529,JR東海道本線,愛知県
稲沢,35.252994,136.820942,JR東海道本線,愛知県
尾張一宮,35.301765,136.797567,JR東海道本線,愛知県
木曽川,35.349319,136.780726,JR東海道本線,愛知県
岐阜,35.409532,136.756514,JR東海道本線,岐阜県
西岐阜,35.404664,136.72341,JR東海道本線,岐阜県
穂積,35.396345,136.693834,JR東海道本線,岐阜県
大垣,35.367096,136.618288,JR東海道本線,岐阜県
垂井,35.369587,136.531246,JR東海道本線,岐阜県
関ヶ原,35.363726,136.470451,JR東海道本線,岐阜県
柏原,35.344592,136.402767,JR東海道本線,滋賀県
近江長岡,35.359307,136.373775,JR東海道本線,滋賀県
醒ヶ井,35.327664,136.345135,JR東海道本線,滋賀県
米原,35.314657,136.289992,JR東海道本線,滋賀県
荒尾,35.373454,136.583276,JR東海道本線,岐阜県
美濃赤坂,35.386677,136.582129,JR東海道本線,岐阜県
尾張森岡,34.993826,136.970279,JR武豊線,愛知県
緒川,34.981372,136.9719,JR武豊線,愛知県
石浜,34.967813,136.972932,JR武豊線,愛知県
東浦,34.949574,136.970725,JR武豊線,愛知県
亀崎,34.918986,136.961058,JR武豊線,愛知県
乙川,34.903306,136.941344,JR武豊線,愛知県
半田,34.894167,136.930462,JR武豊線,愛知県
東成岩,34.874279,136.923416,JR武豊線,愛知県
武豊,34.853507,136.921244,JR武豊線,愛知県
八田,35.148973,136.852258,JR関西本線,愛知県
春田,35.14318,136.813512,JR関西本線,愛知県
蟹江,35.142071,136.793908,JR関西本線,愛知県
永和,35.13285,136.764325,JR関西本線,愛知県
弥富,35.114026,136.725664,JR関西本線,愛知県
長島,35.098196,136.695751,JR関西本線,三重県
桑名,35.06747,136.683832,JR関西本線,三重県
朝日,35.033782,136.65803,JR関西本線,三重県
富田,35.008124,136.653143,JR関西本線,三重県
富田浜,34.996553,136.65004,JR関西本線,三重県
四日市,34.962721,136.630168,JR関西本線,三重県
南四日市,34.941514,136.609662,JR関西本線,三重県
河原田,34.910684,136.598527,JR関西本線,三重県
河曲,34.897878,136.568018,JR関西本線,三重県
加佐登,34.890307,136.529907,JR関西本線,三重県
井田川,34.868319,136.492658,JR関西本線,三重県
亀山,34.850103,136.450451,JR関西本線,三重県
関,34.849064,136.394777,JR関西本線,三重県
加太,34.842639,136.340305,JR関西本線,三重県
柘植,34.846993,136.255704,JR関西本線,三重県
新堂,34.821168,136.206507,JR関西本線,三重県
佐那具,34.804193,136.163171,JR関西本線,三重県
伊賀上野,34.789143,136.122907,JR関西本線,三重県
島ヶ原,34.767686,136.054184,JR関西本線,三重県
月ヶ瀬口,34.762813,136.023703,JR関西本線,京都府
大河原,34.77175,135.987635,JR関西本線,京都府
笠置,34.759086,135.934289,JR関西本線,京都府
加茂,34.752575,135.869609,JR関西本線,京都府
船町,34.775809,137.374001,JR飯田線,愛知県
下地,34.780939,137.370612,JR飯田線,愛知県
小坂井,34.797544,137.363056,JR飯田線,愛知県
牛久保,34.808563,137.381671,JR飯田線,愛知県
豊川,34.822519,137.397157,JR飯田線,愛知県
三河一宮,34.847911,137.414549,JR飯田線,愛知県
長山,34.864449,137.431458,JR飯田線,愛知県
江島,34.868029,137.441518,JR飯田線,愛知県
東上,34.876278,137.455236,JR飯田線,愛知県
野田城,34.889282,137.477861,JR飯田線,愛知県
新城,34.901112,137.49304,JR飯田線,愛知県
東新町,34.906129,137.502928,JR飯田線,愛知県
茶臼山,34.910334,137.514424,JR飯田線,愛知県
三河東郷,34.912224,137.527242,JR飯田線,愛知県
大海,34.930164,137.548682,JR飯田線,愛知県
鳥居,34.920834,137.551537,JR飯田線,愛知県
長篠城,34.92599,137.565,JR飯田線,愛知県
本長篠,34.932664,137.576848,JR飯田線,愛知県
三河大野,34.952038,137.602987,JR飯田線,愛知県
湯谷温泉,34.970516,137.613025,JR飯田線,愛知県
三河槙原,34.988589,137.621022,JR飯田線,愛知県
柿平,34.990587,137.644048,JR飯田線,愛知県
三河川合,35.001722,137.663991,JR飯田線,愛知県
池場,35.024418,137.704066,JR飯田線,愛知県
東栄,35.02901,137.713812,JR飯田線,愛知県
出馬,35.049322,137.744276,JR飯田線,静岡県
上市場,35.050202,137.752364,JR飯田線,静岡県
浦川,35.056355,137.763608,JR飯田線,静岡県
早瀬,35.060521,137.775126,JR飯田線,静岡県
下川合,35.069321,137.786422,JR飯田線,静岡県
中部天竜,35.085283,137.802898,JR飯田線,静岡県
佐久間,35.091877,137.809783,JR飯田線,静岡県
相月,35.114988,137.854345,JR飯田線,静岡県
城西,35.131569,137.86198,JR飯田線,静岡県
向市場,35.154068,137.869446,JR飯田線,静岡県
水窪,35.163371,137.870501,JR飯田線,静岡県
大嵐,35.190466,137.818509,JR飯田線,静岡県
小和田,35.209862,137.835971,JR飯田線,静岡県
中井侍,35.235913,137.834912,JR飯田線,長野県
伊那小沢,35.25406,137.834709,JR飯田線,長野県
鶯巣,35.267286,137.832595,JR飯田線,長野県
平岡,35.273652,137.853574,JR飯田線,長野県
為栗,35.311687,137.848503,JR飯田線,長野県
温田,35.336273,137.841294,JR飯田線,長野県
田本,35.348988,137.837922,JR飯田線,長野県
門島,35.375306,137.814151,JR飯田線,長野県
唐笠,35.402338,137.810254,JR飯田線,長野県
金野,35.419128,137.817149,JR飯田線,長野県
千代,35.428949,137.816754,JR飯田線,長野県
天竜峡,35.441114,137.81732,JR飯田線,長野県
川路,35.452946,137.815564,JR飯田線,長野県
時又,35.46402,137.82776,JR飯田線,長野県
駄科,35.4754,137.839625,JR飯田線,長野県
毛賀,35.487445,137.839332,JR飯田線,長野県
伊那八幡,35.49683,137.84154,JR飯田線,長野県
下山村,35.50426,137.83959,JR飯田線,長野県
鼎,35.506726,137.828383,JR飯田線,長野県
切石,35.512339,137.809098,JR飯田線,長野県
飯田,35.519544,137.821244,JR飯田線,長野県
桜町,35.522147,137.829601,JR飯田線,長野県
伊那上郷,35.520164,137.838984,JR飯田線,長野県
元善光寺,35.533843,137.861375,JR飯田線,長野県
下市田,35.544165,137.87641,JR飯田線,長野県
市田,35.549325,137.886578,JR飯田線,長野県
下平,35.572597,137.895922,JR飯田線,長野県
山吹,35.577758,137.903282,JR飯田線,長野県
伊那大島,35.595698,137.913222,JR飯田線,長野県
上片桐,35.617583,137.904064,JR飯田線,長野県
伊那田島,35.627221,137.910338,JR飯田線,長野県
高遠原,35.644693,137.90055,JR飯田線,長野県
七久保,35.654645,137.911346,JR飯田線,長野県
伊那本郷,35.66543,137.93248,JR飯田線,長野県
飯島,35.677571,137.929004,JR飯田線,長野県
田切,35.695613,137.933092,JR飯田線,長野県
伊那福岡,35.712233,137.93398,JR飯田線,長野県
小町屋,35.726781,137.935207,JR飯田線,長野県
駒ヶ根,35.736219,137.936862,JR飯田線,長野県
大田切,35.748162,137.940159,JR飯田線,長野県
宮田,35.76726,137.938897,JR飯田線,長野県
赤木,35.777887,137.943943,JR飯田線,長野県
沢渡,35.803681,137.944035,JR飯田線,長野県
下島,35.812706,137.940055,JR飯田線,長野県
伊那市,35.838435,137.959196,JR飯田線,長野県
伊那北,35.84524,137.964368,JR飯田線,長野県
田畑,35.860791,137.97781,JR飯田線,長野県
北殿,35.879377,137.984059,JR飯田線,長野県
木ノ下,35.900892,137.988022,JR飯田線,長野県
伊那松島,35.913865,137.988647,JR飯田線,長野県
沢,35.936385,137.985477,JR飯田線,長野県
羽場,35.953094,137.985126,JR飯田線,長野県
伊那新町,35.9688,137.984057,JR飯田線,長野県
宮木,35.976247,137.990509,JR飯田線,長野県
辰野,35.984565,137.997238,JR飯田線,長野県
川岸,36.03296,138.021937,JR飯田線,長野県
名古屋,35.168733,136.882417,あおなみ線,愛知県
ささしまライブ,35.161745,136.881815,あおなみ線,愛知県
小本,35.14921,136.861331,あおなみ線,愛知県
荒子,35.139992,136.861676,あおなみ線,愛知県
南荒子,35.131707,136.861771,あおなみ線,愛知県
中島,35.125144,136.861346,あおなみ線,愛知県
港北,35.114529,136.862739,あおなみ線,愛知県
荒子川公園,35.104569,136.861148,あおなみ線,愛知県
稲永,35.091418,136.863203,あおなみ線,愛知県
野跡,35.075253,136.854136,あおなみ線,愛知県
金城ふ頭,35.048775,136.849009,あおなみ線,愛知県
藤が丘,35.182113,137.02171,リニモ,愛知県
はなみずき通,35.17767,137.035369,リニモ,愛知県
杁ヶ池公園,35.171788,137.037866,リニモ,愛知県
長久手古戦場,35.171574,137.049932,リニモ,愛知県
芸大通,35.171938,137.061092,リニモ,愛知県
公園西,35.174403,137.076737,リニモ,愛知県
愛・地球博記念公園,35.177948,137.08796,リニモ,愛知県
陶磁資料館南,35.179286,137.097099,リニモ,愛知県
八草,35.176623,137.106366,リニモ,愛知県
大曽根,35.192385,136.937204,名古屋ガイドウェイバス,愛知県
ナゴヤドーム前矢田,35.190691,136.945255,名古屋ガイドウェイバス,愛知県
砂田橋,35.188821,136.954268,名古屋ガイドウェイバス,愛知県
守山,35.197431,136.956639,名古屋ガイドウェイバス,愛知県
金屋,35.202551,136.956747,名古屋ガイドウェイバス,愛知県
川宮,35.210405,136.962047,名古屋ガイドウェイバス,愛知県
川村,35.214297,136.968591,名古屋ガイドウェイバス,愛知県
白沢渓谷,35.216121,136.978569,名古屋ガイドウェイバス,愛知県
小幡緑地,35.218785,136.982839,名古屋ガイドウェイバス,愛知県
上飯田,35.203845,136.929642,名古屋市上飯田線,愛知県
平安通,35.195934,136.929784,名古屋市上飯田線,愛知県
金山,35.14352,136.901611,名古屋市名城線,愛知県
東別院,35.150453,136.904824,名古屋市名城線,愛知県
上前津,35.157477,136.906815,名古屋市名城線,愛知県
矢場町,35.163785,136.90899,名古屋市名城線,愛知県
栄,35.16999,136.908031,名古屋市名城線,愛知県
久屋大通,35.173784,136.908156,名古屋市名城線,愛知県
名古屋城,35.18156,136.905379,名古屋市名城線,愛知県
名城公園,35.190528,136.904748,名古屋市名城線,愛知県
黒川,35.197183,136.910178,名古屋市名城線,愛知県
志賀本通,35.196281,136.92121,名古屋市名城線,愛知県
砂田橋,35.188861,136.953999,名古屋市名城線,愛知県
茶屋ヶ坂,35.184612,136.962254,名古屋市名城線,愛知県
自由ヶ丘,35.174961,136.966762,名古屋市名城線,愛知県
本山,35.163923,136.963441,名古屋市名城線,愛知県
名古屋大学,35.154261,136.96658,名古屋市名城線,愛知県
八事日赤,35.144556,136.965008,名古屋市名城線,愛知県
八事,35.136946,136.964036,名古屋市名城線,愛知県
総合リハビリセンター,35.130536,136.954523,名古屋市名城線,愛知県
瑞穂運動場東,35.123167,136.948685,名古屋市名城線,愛知県
新瑞橋,35.117734,136.936603,名古屋市名城線,愛知県
妙音通,35.117125,136.929545,名古屋市名城線,愛知県
堀田,35.116644,136.921685,名古屋市名城線,愛知県
熱田神宮伝馬町,35.120735,136.91038,名古屋市名城線,愛知県
熱田神宮西,35.127956,136.906769,名古屋市名城線,愛知県
西高蔵,35.134622,136.901769,名古屋市名城線,愛知県
猿投,35.122613,137.178739,名鉄三河線,愛知県
平戸橋,35.114628,137.184725,名鉄三河線,愛知県
越戸,35.10769,137.180178,名鉄三河線,愛知県
梅坪,35.099654,137.162206,名鉄三河線,愛知県
豊田市,35.087305,137.156227,名鉄三河線,愛知県
上挙母,35.071854,137.154453,名鉄三河線,愛知県
土橋,35.058179,137.129572,名鉄三河線,愛知県
竹村,35.040067,137.11476,名鉄三河線,愛知県
若林,35.026284,137.095851,名鉄三河線,愛知県
三河八橋,35.010913,137.077147,名鉄三河線,愛知県
三河知立,35.005684,137.055123,名鉄三河線,愛知県
知立,35.006198,137.039628,名鉄三河線,愛知県
重原,34.994824,137.023727,名鉄三河線,愛知県
刈谷,34.990884,137.008642,名鉄三河線,愛知県
刈谷市,34.984803,136.993844,名鉄三河線,愛知県
小垣江,34.9639,136.995455,名鉄三河線,愛知県
吉浜,34.946327,136.98919,名鉄三河線,愛知県
三河高浜,34.930796,136.989954,名鉄三河線,愛知県
高浜港,34.921536,136.989391,名鉄三河線,愛知県
北新川,34.906018,136.992475,名鉄三河線,愛知県
新川町,34.896619,136.990312,名鉄三河線,愛知県
碧南中央,34.887395,136.989476,名鉄三河線,愛知県
碧南,34.874041,136.985613,名鉄三河線,愛知県
伊奈,34.802857,137.354743,名鉄名古屋本線,愛知県
小田渕,34.814739,137.34559,名鉄名古屋本線,愛知県
国府,34.83752,137.328101,名鉄名古屋本線,愛知県
御油,34.846113,137.321443,名鉄名古屋本線,愛知県
名電赤坂,34.859331,137.311152,名鉄名古屋本線,愛知県
名電長沢,34.871623,137.288298,名鉄名古屋本線,愛知県
本宿,34.893025,137.260014,名鉄名古屋本線,愛知県
名電山中,34.899474,137.242829,名鉄名古屋本線,愛知県
藤川,34.913304,137.218428,名鉄名古屋本線,愛知県
美合,34.923763,137.196317,名鉄名古屋本線,愛知県
男川,34.937461,137.183296,名鉄名古屋本線,愛知県
東岡崎,34.951904,137.167333,名鉄名古屋本線,愛知県
岡崎公園前,34.954984,137.153309,名鉄名古屋本線,愛知県
矢作橋,34.961149,137.139957,名鉄名古屋本線,愛知県
宇頭,34.971367,137.118103,名鉄名古屋本線,愛知県
新安城,34.986885,137.085443,名鉄名古屋本線,愛知県
牛田,34.999294,137.060946,名鉄名古屋本線,愛知県
一ツ木,35.01367,137.02551,名鉄名古屋本線,愛知県
富士松,35.029759,137.016508,名鉄名古屋本線,愛知県
豊明,35.041127,137.008161,名鉄名古屋本線,愛知県
前後,35.05227,136.995665,名鉄名古屋本線,愛知県
中京競馬場前,35.061302,136.98158,名鉄名古屋本線,愛知県
有松,35.067687,136.971084,名鉄名古屋本線,愛知県
左京山,35.070553,136.960301,名鉄名古屋本線,愛知県
鳴海,35.079149,136.950096,名鉄名古屋本線,愛知県
本星崎,35.087392,136.937378,名鉄名古屋本線,愛知県
本笠寺,35.099199,136.933409,名鉄名古屋本線,愛知県
桜,35.106062,136.934586,名鉄名古屋本線,愛知県
呼続,35.114722,136.930387,名鉄名古屋本線,愛知県
堀田,35.120251,136.919839,名鉄名古屋本線,愛知県
神宮前,35.125857,136.912485,名鉄名古屋本線,愛知県
金山,35.142871,136.9013,名鉄名古屋本線,愛知県
山王,35.15233,136.888461,名鉄名古屋本線,愛知県
名鉄名古屋,35.169252,136.884187,名鉄名古屋本線,愛知県
栄生,35.183687,136.873051,名鉄名古屋本線,愛知県
東枇杷島,35.189808,136.870168,名鉄名古屋本線,愛知県
西枇杷島,35.195015,136.865685,名鉄名古屋本線,愛知県
二ツ杁,35.194646,136.859583,名鉄名古屋本線,愛知県
新川橋,35.195701,136.851989,名鉄名古屋本線,愛知県
須ヶ口,35.198684,136.846229,名鉄名古屋本線,愛知県
丸ノ内,35.204742,136.841927,名鉄名古屋本線,愛知県
新清洲,35.211249,136.835607,名鉄名古屋本線,愛知県
大里,35.226216,136.818428,名鉄名古屋本線,愛知県
奥田,35.235412,136.810917,名鉄名古屋本線,愛知県
国府宮,35.254218,136.802963,名鉄名古屋本線,愛知県
島氏永,35.270777,136.800987,名鉄名古屋本線,愛知県
妙興寺,35.287178,136.798231,名鉄名古屋本線,愛知県
名鉄一宮,35.30154,136.797225,名鉄名古屋本線,愛知県
今伊勢,35.31836,136.789273,名鉄名古屋本線,愛知県
石刀,35.326204,136.785407,名鉄名古屋本線,愛知県
新木曽川,35.342047,136.779421,名鉄名古屋本線,愛知県
黒田,35.350213,136.777502,名鉄名古屋本線,愛知県
木曽川堤,35.365067,136.770486,名鉄名古屋本線,愛知県
笠松,35.37466,136.764664,名鉄名古屋本線,岐阜県
岐南,35.389716,136.769165,名鉄名古屋本線,岐阜県
茶所,35.402048,136.768917,名鉄名古屋本線,岐阜県
加納,35.405209,136.765984,名鉄名古屋本線,岐阜県
名鉄岐阜,35.411136,136.760066,名鉄名古屋本線,岐阜県
味鋺,35.222478,136.936113,名鉄小牧線,愛知県
味美,35.235209,136.937134,名鉄小牧線,愛知県
春日井,35.25035,136.936228,名鉄小牧線,愛知県
牛山,35.264014,136.931356,名鉄小牧線,愛知県
間内,35.271585,136.9312,名鉄小牧線,愛知県
小牧口,35.281717,136.927675,名鉄小牧線,愛知県
小牧,35.28915,136.928461,名鉄小牧線,愛知県
小牧原,35.300145,136.935836,名鉄小牧線,愛知県
味岡,35.309301,136.940304,名鉄小牧線,愛知県
田県神社前,35.317422,136.943675,名鉄小牧線,愛知県
楽田,35.330548,136.950101,名鉄小牧線,愛知県
羽黒,35.351519,136.952486,名鉄小牧線,愛知県
犬山,35.379871,136.945536,名鉄小牧線,愛知県
五ノ三,35.129838,136.711464,名鉄尾西線,愛知県
佐屋,35.147552,136.716612,名鉄尾西線,愛知県
日比野,35.163258,136.728351,名鉄尾西線,愛知県
津島,35.177982,136.730995,名鉄尾西線,愛知県
町方,35.18898,136.727551,名鉄尾西線,愛知県
六輪,35.202395,136.729306,名鉄尾西線,愛知県
渕高,35.213944,136.727256,名鉄尾西線,愛知県
丸渕,35.222635,136.728991,名鉄尾西線,愛知県
上丸渕,35.233809,136.732521,名鉄尾西線,愛知県
森上,35.247229,136.736698,名鉄尾西線,愛知県
山崎,35.256548,136.739372,名鉄尾西線,愛知県
玉野,35.266327,136.747982,名鉄尾西線,愛知県
萩原,35.277157,136.757703,名鉄尾西線,愛知県
二子,35.283986,136.766268,名鉄尾西線,愛知県
苅安賀,35.287194,136.778275,名鉄尾西線,愛知県
観音寺,35.289716,136.786191,名鉄尾西線,愛知県
西一宮,35.307603,136.791948,名鉄尾西線,愛知県
開明,35.31926,136.7741,名鉄尾西線,愛知県
奥町,35.32434,136.761092,名鉄尾西線,愛知県
玉ノ井,35.334887,136.757968,名鉄尾西線,愛知県
豊田本町,35.113586,136.910877,名鉄常滑線,愛知県
道徳,35.105712,136.909409,名鉄常滑線,愛知県
大江,35.093258,136.912758,名鉄常滑線,愛知県
大同町,35.080268,136.909314,名鉄常滑線,愛知県
柴田,35.072774,136.909126,名鉄常滑線,愛知県
名和,35.060914,136.911709,名鉄常滑線,愛知県
聚楽園,35.042857,136.90304,名鉄常滑線,愛知県
新日鉄前,35.035161,136.899491,名鉄常滑線,愛知県
太田川,35.020221,136.892504,名鉄常滑線,愛知県
尾張横須賀,35.010132,136.885655,名鉄常滑線,愛知県
寺本,35.000191,136.875498,名鉄常滑線,愛知県
朝倉,34.993858,136.863419,名鉄常滑線,愛知県
古見,34.987809,136.856673,名鉄常滑線,愛知県
長浦,34.978432,136.847808,名鉄常滑線,愛知県
日長,34.96162,136.832152,名鉄常滑線,愛知県
新舞子,34.949689,136.828669,名鉄常滑線,愛知県
大野町,34.935441,136.827641,名鉄常滑線,愛知県
西ノ口,34.926759,136.82663,名鉄常滑線,愛知県
蒲池,34.915408,136.825536,名鉄常滑線,愛知県
榎戸,34.90489,136.82822,名鉄常滑線,愛知県
多屋,34.896983,136.830695,名鉄常滑線,愛知県
常滑,34.891167,136.834992,名鉄常滑線,愛知県
富岡前,35.379508,136.962112,名鉄広見線,愛知県
善師野,35.389744,136.980027,名鉄広見線,愛知県
西可児,35.404685,137.010616,名鉄広見線,岐阜県
可児川,35.41812,137.01847,名鉄広見線,岐阜県
日本ライン今渡,35.432302,137.036818,名鉄広見線,岐阜県
新可児,35.423282,137.055622,名鉄広見線,岐阜県
明智,35.433208,137.087295,名鉄広見線,岐阜県
顔戸,35.434522,137.105154,名鉄広見線,岐阜県
御嵩口,35.431281,137.121741,名鉄広見線,岐阜県
御嵩,35.429723,137.127527,名鉄広見線,岐阜県
高横須賀,35.009608,136.893696,名鉄河和線,愛知県
加木屋中ノ池,35.000478,136.901651,名鉄河和線,愛知県
南加木屋,34.989216,136.906853,名鉄河和線,愛知県
八幡新田,34.973674,136.912578,名鉄河和線,愛知県
巽ヶ丘,34.962265,136.915556,名鉄河和線,愛知県
白沢,34.955219,136.91537,名鉄河和線,愛知県
坂部,34.941579,136.916562,名鉄河和線,愛知県
阿久比,34.931256,136.918517,名鉄河和線,愛知県
植大,34.917457,136.923448,名鉄河和線,愛知県
半田口,34.909111,136.925462,名鉄河和線,愛知県
住吉町,34.902042,136.925684,名鉄河和線,愛知県
知多半田,34.893931,136.925954,名鉄河和線,愛知県
成岩,34.886209,136.921879,名鉄河和線,愛知県
青山,34.878132,136.917,名鉄河和線,愛知県
上ゲ,34.858389,136.916403,名鉄河和線,愛知県
知多武豊,34.850732,136.916439,名鉄河和線,愛知県
富貴,34.828823,136.917043,名鉄河和線,愛知県
河和口,34.797805,136.918618,名鉄河和線,愛知県
河和,34.777771,136.912528,名鉄河和線,愛知県
甚目寺,35.195953,136.825492,名鉄津島線,愛知県
七宝,35.195775,136.806413,名鉄津島線,愛知県
木田,35.195328,136.787865,名鉄津島線,愛知県
青塚,35.198674,136.76708,名鉄津島線,愛知県
勝幡,35.195143,136.750082,名鉄津島線,愛知県
藤浪,35.188911,136.738766,名鉄津島線,愛知県
栄町,35.170567,136.908962,名鉄瀬戸線,愛知県
東大手,35.183727,136.908376,名鉄瀬戸線,愛知県
清水,35.187152,136.913814,名鉄瀬戸線,愛知県
尼ヶ坂,35.187957,136.91928,名鉄瀬戸線,愛知県
森下,35.188299,136.929657,名鉄瀬戸線,愛知県
大曽根,35.1916,136.936855,名鉄瀬戸線,愛知県
矢田,35.193699,136.947802,名鉄瀬戸線,愛知県
守山自衛隊前,35.196258,136.957843,名鉄瀬戸線,愛知県
瓢箪山,35.197222,136.965048,名鉄瀬戸線,愛知県
小幡,35.200216,136.975769,名鉄瀬戸線,愛知県
喜多山,35.205099,136.987735,名鉄瀬戸線,愛知県
大森・金城学院前,35.206934,136.996465,名鉄瀬戸線,愛知県
印場,35.211085,137.011132,名鉄瀬戸線,愛知県
旭前,35.214162,137.019706,名鉄瀬戸線,愛知県
尾張旭,35.216743,137.036393,名鉄瀬戸線,愛知県
三郷,35.216258,137.052352,名鉄瀬戸線,愛知県
水野,35.224296,137.069659,名鉄瀬戸線,愛知県
新瀬戸,35.225485,137.077639,名鉄瀬戸線,愛知県
瀬戸市役所前,35.224986,137.084177,名鉄瀬戸線,愛知県
尾張瀬戸,35.225094,137.09727,名鉄瀬戸線,愛知県
下小田井,35.201878,136.870638,名鉄犬山線,愛知県
中小田井,35.214647,136.876772,名鉄犬山線,愛知県
上小田井,35.223482,136.876941,名鉄犬山線,愛知県
西春,35.244627,136.871235,名鉄犬山線,愛知県
徳重・名古屋芸大,35.256045,136.873384,名鉄犬山線,愛知県
大山寺,35.263508,136.874748,名鉄犬山線,愛知県
岩倉,35.277972,136.873511,名鉄犬山線,愛知県
石仏,35.295545,136.871144,名鉄犬山線,愛知県
布袋,35.317135,136.872987,名鉄犬山線,愛知県
江南,35.33475,136.872109,名鉄犬山線,愛知県
柏森,35.344807,136.900181,名鉄犬山線,愛知県
扶桑,35.359557,136.91597,名鉄犬山線,愛知県
木津用水,35.366914,136.925977,名鉄犬山線,愛知県
犬山口,35.374212,136.939945,名鉄犬山線,愛知県
犬山遊園,35.390331,136.946894,名鉄犬山線,愛知県
新鵜沼,35.396799,136.944314,名鉄犬山線,岐阜県
上野間,34.807284,136.866854,名鉄知多新線,愛知県
美浜緑苑,34.80028,136.863063,名鉄知多新線,愛知県
知多奥田,34.787617,136.864488,名鉄知多新線,愛知県
野間,34.7723,136.860683,名鉄知多新線,愛知県
内海,34.744631,136.875544,名鉄知多新線,愛知県
りんくう常滑,34.87967,136.828164,名鉄空港線,愛知県
中部国際空港,34.859262,136.816382,名鉄空港線,愛知県
東名古屋港,35.089091,136.899255,名鉄築港線,愛知県
吉良吉田,34.794043,137.071017,名鉄蒲郡線,愛知県
三河鳥羽,34.793214,137.104984,名鉄蒲郡線,愛知県
西幡豆,34.792431,137.121271,名鉄蒲郡線,愛知県
東幡豆,34.789693,137.145645,名鉄蒲郡線,愛知県
こどもの国,34.788791,137.162721,名鉄蒲郡線,愛知県
西浦,34.79003,137.178617,名鉄蒲郡線,愛知県
形原,34.798607,137.184594,名鉄蒲郡線,愛知県
三河鹿島,34.813313,137.189687,名鉄蒲郡線,愛知県
蒲郡競艇場前,34.825545,137.202014,名鉄蒲郡線,愛知県
蒲郡,34.822743,137.226115,名鉄蒲郡線,愛知県
北安城,34.964677,137.092146,名鉄西尾線,愛知県
南安城,34.951976,137.092457,名鉄西尾線,愛知県
碧海古井,34.93723,137.090863,名鉄西尾線,愛知県
堀内公園,34.927834,137.089636,名鉄西尾線,愛知県
桜井,34.917477,137.088345,名鉄西尾線,愛知県
南桜井,34.906302,137.07721,名鉄西尾線,愛知県
米津,34.892822,137.060993,名鉄西尾線,愛知県
桜町前,34.880107,137.062444,名鉄西尾線,愛知県
西尾口,34.870647,137.062661,名鉄西尾線,愛知県
西尾,34.863917,137.057789,名鉄西尾線,愛知県
福地,34.844663,137.048579,名鉄西尾線,愛知県
上横須賀,34.829941,137.071883,名鉄西尾線,愛知県
八幡,34.82916,137.352113,名鉄豊川線,愛知県
諏訪町,34.823464,137.370479,名鉄豊川線,愛知県
稲荷口,34.818435,137.387703,名鉄豊川線,愛知県
豊川稲荷,34.821755,137.396058,名鉄豊川線,愛知県
上豊田,35.116168,137.15535,名鉄豊田線,愛知県
浄水,35.121298,137.137186,名鉄豊田線,愛知県
三好ヶ丘,35.126918,137.111219,名鉄豊田線,愛知県
黒笹,35.127681,137.091365,名鉄豊田線,愛知県
米野木,35.123728,137.06702,名鉄豊田線,愛知県
日進,35.118378,137.04878,名鉄豊田線,愛知県
赤池,35.121097,137.017978,名鉄豊田線,愛知県
名古屋港,35.09348,136.881971,名古屋市名港線,愛知県
築地口,35.099348,136.883162,名古屋市名港線,愛知県
港区役所,35.105736,136.88455,名古屋市名港線,愛知県
東海通,35.113388,136.887336,名古屋市名港線,愛知県
六番町,35.124623,136.888715,名古屋市名港線,愛知県
日比野,35.132711,136.893125,名古屋市名港線,愛知県
高畑,35.139161,136.853466,名古屋市東山線,愛知県
八田,35.148986,136.853278,名古屋市東山線,愛知県
岩塚,35.158459,136.854406,名古屋市東山線,愛知県
中村公園,35.16783,136.855056,名古屋市東山線,愛知県
中村日赤,35.172385,136.861733,名古屋市東山線,愛知県
本陣,35.177135,136.866782,名古屋市東山線,愛知県
亀島,35.177526,136.876756,名古屋市東山線,愛知県
名古屋,35.171252,136.883925,名古屋市東山線,愛知県
伏見,35.169273,136.897427,名古屋市東山線,愛知県
新栄町,35.170729,136.920377,名古屋市東山線,愛知県
千種,35.170625,136.930402,名古屋市東山線,愛知県
今池,35.169919,136.937331,名古屋市東山線,愛知県
池下,35.167675,136.946486,名古屋市東山線,愛知県
覚王山,35.166565,136.953708,名古屋市東山線,愛知県
東山公園,35.160454,136.972873,名古屋市東山線,愛知県
星ヶ丘,35.162399,136.985095,名古屋市東山線,愛知県
一社,35.168231,136.995927,名古屋市東山線,愛知県
上社,35.173656,137.007081,名古屋市東山線,愛知県
本郷,35.175453,137.013425,名古屋市東山線,愛知県
藤が丘,35.182415,137.021361,名古屋市東山線,愛知県
太閤通,35.167611,136.873126,名古屋市桜通線,愛知県
名古屋,35.170761,136.882546,名古屋市桜通線,愛知県
国際センター,35.172128,136.889375,名古屋市桜通線,愛知県
丸の内,35.173098,136.898113,名古屋市桜通線,愛知県
高岳,35.174062,136.915656,名古屋市桜通線,愛知県
車道,35.173507,136.929543,名古屋市桜通線,愛知県
吹上,35.158787,136.935376,名古屋市桜通線,愛知県
御器所,35.149585,136.934146,名古屋市桜通線,愛知県
桜山,35.139695,136.933316,名古屋市桜通線,愛知県
瑞穂区役所,35.131793,136.93443,名古屋市桜通線,愛知県
瑞穂運動場西,35.124949,136.935477,名古屋市桜通線,愛知県
桜本町,35.109001,136.936761,名古屋市桜通線,愛知県
鶴里,35.105738,136.943433,名古屋市桜通線,愛知県
野並,35.102358,136.95549,名古屋市桜通線,愛知県
鳴子北,35.102684,136.966209,名古屋市桜通線,愛知県
相生山,35.102545,136.976208,名古屋市桜通線,愛知県
神沢,35.098518,136.98954,名古屋市桜通線,愛知県
徳重,35.094491,136.99815,名古屋市桜通線,愛知県
庄内緑地公園,35.215186,136.886963,名古屋市鶴舞線,愛知県
庄内通,35.204476,136.891044,名古屋市鶴舞線,愛知県
浄心,35.192205,136.890819,名古屋市鶴舞線,愛知県
浅間町,35.18384,136.890335,名古屋市鶴舞線,愛知県
丸の内,35.173458,136.896944,名古屋市鶴舞線,愛知県
大須観音,35.160729,136.898158,名古屋市鶴舞線,愛知県
鶴舞,35.15596,136.916749,名古屋市鶴舞線,愛知県
荒畑,35.149654,136.92593,名古屋市鶴舞線,愛知県
川名,35.148703,136.948717,名古屋市鶴舞線,愛知県
いりなか,35.143234,136.955375,名古屋市鶴舞線,愛知県
塩釜口,35.132433,136.977529,名古屋市鶴舞線,愛知県
植田,35.128649,136.987882,名古屋市鶴舞線,愛知県
原,35.126118,136.996714,名古屋市鶴舞線,愛知県
平針,35.122766,137.006904,名古屋市鶴舞線,愛知県
六名,34.941132,137.152004,愛知環状鉄道線,愛知県
中岡崎,34.956231,137.152723,愛知環状鉄道線,愛知県
北岡崎,34.972301,137.157736,愛知環状鉄道線,愛知県
大門,34.982411,137.154883,愛知環状鉄道線,愛知県
北野桝塚,34.996289,137.139457,愛知環状鉄道線,愛知県
三河上郷,35.012384,137.132756,愛知環状鉄道線,愛知県
永覚,35.027361,137.138983,愛知環状鉄道線,愛知県
末野原,35.03949,137.146866,愛知環状鉄道線,愛知県
三河豊田,35.0554,137.150934,愛知環状鉄道線,愛知県
新上挙母,35.071732,137.151206,愛知環状鉄道線,愛知県
新豊田,35.088041,137.153524,愛知環状鉄道線,愛知県
愛環梅坪,35.105056,137.160781,愛知環状鉄道線,愛知県
四郷,35.12211,137.162635,愛知環状鉄道線,愛知県
貝津,35.133089,137.148091,愛知環状鉄道線,愛知県
保見,35.136665,137.134363,愛知環状鉄道線,愛知県
篠原,35.155171,137.120592,愛知環状鉄道線,愛知県
八草,35.175404,137.106945,愛知環状鉄道線,愛知県
山口,35.197656,137.102089,愛知環状鉄道線,愛知県
瀬戸口,35.206679,137.081866,愛知環状鉄道線,愛知県
瀬戸市,35.225921,137.078452,愛知環状鉄道線,愛知県
中水野,35.250399,137.071947,愛知環状鉄道線,愛知県
尾張星の宮,35.212988,136.855011,JR東海交通事業城北線,愛知県
小田井,35.221043,136.880491,JR東海交通事業城北線,愛知県
比良,35.228549,136.90178,JR東海交通事業城北線,愛知県
味美,35.229504,136.932263,JR東海交通事業城北線,愛知県
勝川,35.227821,136.952734,JR東海交通事業城北線,愛知県
新横浜,35.506824,139.617348,東海道新幹線,神奈川県
新富士,35.142185,138.663637,東海道新幹線,静岡県
岐阜羽島,35.316023,136.68537,東海道新幹線,岐阜県
京都,34.985465,135.757748,東海道新幹線,京都府
新大阪,34.734136,135.501852,東海道新幹線,大阪府
駅前,34.763879,137.383132,豊橋鉄道東田本線,愛知県
駅前大通,34.763209,137.385707,豊橋鉄道東田本線,愛知県
新川,34.762857,137.389483,豊橋鉄道東田本線,愛知県
札木,34.765959,137.390299,豊橋鉄道東田本線,愛知県
市役所前,34.767369,137.392488,豊橋鉄道東田本線,愛知県
豊橋公園前,34.766841,137.395406,豊橋鉄道東田本線,愛知県
東八町,34.765924,137.400341,豊橋鉄道東田本線,愛知県
前畑,34.765818,137.404718,豊橋鉄道東田本線,愛知県
東田坂上,34.765783,137.408495,豊橋鉄道東田本線,愛知県
東田,34.76536,137.413151,豊橋鉄道東田本線,愛知県
競輪場前,34.765078,137.416778,豊橋鉄道東田本線,愛知県
井原,34.764232,137.421885,豊橋鉄道東田本線,愛知県
赤岩口,34.763403,137.429931,豊橋鉄道東田本線,愛知県
運動公園前,34.75845,137.422314,豊橋鉄道東田本線,愛知県
新豊橋,34.762272,137.383375,豊橋鉄道渥美線,愛知県
柳生橋,34.75479,137.38847,豊橋鉄道渥美線,愛知県
小池,34.748891,137.388076,豊橋鉄道渥美線,愛知県
愛知大学前,34.741682,137.385754,豊橋鉄道渥美線,愛知県
南栄,34.73592,137.385446,豊橋鉄道渥美線,愛知県
高師,34.727068,137.381674,豊橋鉄道渥美線,愛知県
芦原,34.718433,137.380122,豊橋鉄道渥美線,愛知県
植田,34.711085,137.373047,豊橋鉄道渥美線,愛知県
向ヶ丘,34.706351,137.367556,豊橋鉄道渥美線,愛知県
大清水,34.695966,137.358863,豊橋鉄道渥美線,愛知県
老津,34.692344,137.33536,豊橋鉄道渥美線,愛知県
杉山,34.680301,137.320759,豊橋鉄道渥美線,愛知県
やぐま台,34.673809,137.309427,豊橋鉄道渥美線,愛知県
豊島,34.667459,137.293737,豊橋鉄道渥美線,愛知県
神戸,34.668253,137.278044,豊橋鉄道渥美線,愛知県
三河田原,34.666875,137.269172,豊橋鉄道渥美線,愛知県
近鉄名古屋,35.169191,136.883855,近鉄名古屋線,愛知県
米野,35.161354,136.879793,近鉄名古屋線,愛知県
黄金,35.156185,136.870621,近鉄名古屋線,愛知県
烏森,35.152935,136.863895,近鉄名古屋線,愛知県
近鉄八田,35.149587,136.854458,近鉄名古屋線,愛知県
伏屋,35.140183,136.827841,近鉄名古屋線,愛知県
戸田,35.132731,136.807624,近鉄名古屋線,愛知県
近鉄蟹江,35.129739,136.794139,近鉄名古屋線,愛知県
富吉,35.123634,136.769298,近鉄名古屋線,愛知県
佐古木,35.119574,136.752583,近鉄名古屋線,愛知県
近鉄弥富,35.113634,136.727638,近鉄名古屋線,愛知県
近鉄長島,35.097721,136.696162,近鉄名古屋線,三重県
桑名,35.06744,136.683435,近鉄名古屋線,三重県
益生,35.057772,136.67854,近鉄名古屋線,三重県
伊勢朝日,35.038246,136.668821,近鉄名古屋線,三重県
川越富洲原,35.016267,136.659736,近鉄名古屋線,三重県
近鉄富田,35.006491,136.64934,近鉄名古屋線,三重県
霞ヶ浦,34.993392,136.636872,近鉄名古屋線,三重県
阿倉川,34.985207,136.629417,近鉄名古屋線,三重県
川原町,34.977283,136.623201,近鉄名古屋線,三重県
近鉄四日市,34.966495,136.618352,近鉄名古屋線,三重県
新正,34.955816,136.61873,近鉄名古屋線,三重県
海山道,34.943304,136.622956,近鉄名古屋線,三重県
塩浜,34.933008,136.622242,近鉄名古屋線,三重県
北楠,34.916197,136.624797,近鉄名古屋線,三重県
楠,34.90489,136.631208,近鉄名古屋線,三重県
長太ノ浦,34.89158,136.6264,近鉄名古屋線,三重県
箕田,34.879439,136.622025,近鉄名古屋線,三重県
伊勢若松,34.869431,136.616765,近鉄名古屋線,三重県
千代崎,34.854793,136.608332,近鉄名古屋線,三重県
白子,34.833754,136.589584,近鉄名古屋線,三重県
鼓ヶ浦,34.826219,136.581299,近鉄名古屋線,三重県
磯山,34.812609,136.568881,近鉄名古屋線,三重県
千里,34.798491,136.556216,近鉄名古屋線,三重県
豊津上野,34.785156,136.543173,近鉄名古屋線,三重県
白塚,34.77066,136.53254,近鉄名古屋線,三重県
高田本山,34.755082,136.516431,近鉄名古屋線,三重県
江戸橋,34.744425,136.514034,近鉄名古屋線,三重県
津,34.734418,136.510581,近鉄名古屋線,三重県
津新町,34.715632,136.50006,近鉄名古屋線,三重県
南が丘,34.692183,136.49662,近鉄名古屋線,三重県
久居,34.675543,136.477806,近鉄名古屋線,三重県
桃園,34.663372,136.47749,近鉄名古屋線,三重県
伊勢中川,34.635028,136.477894,近鉄名古屋線,三重県
