station_name,operator,line_name,lat,lng,passengers
二月田,九州旅客鉄道,指宿枕崎線,31.25432,130.6301,305.0
古島,沖縄都市モノレール,沖縄都市モノレール線,26.23064,127.70294,3534.0
お台場海浜公園,ゆりかもめ,東京臨海新交通臨海線,35.629805000000005,139.77853,8535.0
東京国際クルーズターミナル,ゆりかもめ,東京臨海新交通臨海線,35.621357445,139.77310318000002,1984.0
テレコムセンター,ゆりかもめ,東京臨海新交通臨海線,35.617725,139.77966500000002,7631.0
汐留,ゆりかもめ,東京臨海新交通臨海線,35.662985,139.760075,4056.0
台場,ゆりかもめ,東京臨海新交通臨海線,35.625870000000006,139.77137499999998,8143.0
有明,ゆりかもめ,東京臨海新交通臨海線,35.63455,139.79334,5256.0
東京ビッグサイト,ゆりかもめ,東京臨海新交通臨海線,35.63021,139.7913,7671.0
新橋,ゆりかもめ,東京臨海新交通臨海線,35.66558333333333,139.75958666666668,31169.0
竹芝,ゆりかもめ,東京臨海新交通臨海線,35.654065,139.762015,3018.0
芝浦ふ頭,ゆりかもめ,東京臨海新交通臨海線,35.64222,139.75787,3756.0
日の出,ゆりかもめ,東京臨海新交通臨海線,35.64926,139.75916,1584.0
青海,ゆりかもめ,東京臨海新交通臨海線,35.6248,139.781315,3648.0
新豊洲,ゆりかもめ,東京臨海新交通臨海線,35.64871,139.79011500000001,3519.0
市場前,ゆりかもめ,東京臨海新交通臨海線,35.64569,139.78565,7302.0
有明テニスの森,ゆりかもめ,東京臨海新交通臨海線,35.63998,139.788895,4833.0
豊洲,ゆりかもめ,東京臨海新交通臨海線,35.653705,139.795435,19824.0
新石切,近畿日本鉄道,けいはんな線,34.680096666666664,135.64109666666664,16187.0
長田,近畿日本鉄道,けいはんな線,34.678754999999995,135.591965,1.0
吉田,近畿日本鉄道,けいはんな線,34.680335,135.624515,14389.0
荒本,近畿日本鉄道,けいはんな線,34.678625,135.60499,14024.0
生駒,近畿日本鉄道,けいはんな線,34.6931,135.698055,1.0
学研奈良登美ヶ丘,近畿日本鉄道,けいはんな線,34.726385,135.74916000000002,12410.0
白庭台,近畿日本鉄道,けいはんな線,34.72103,135.71683000000002,8528.0
学研北生駒,近畿日本鉄道,けいはんな線,34.724845,135.72342,5463.0
ポートターミナル,神戸新交通,ポートアイランド線,34.681455,135.20222,523.0
中埠頭,神戸新交通,ポートアイランド線,34.669285,135.21717,2211.0
市民広場,神戸新交通,ポートアイランド線,34.664905000000005,135.21244,8234.0
貿易センター,神戸新交通,ポートアイランド線,34.689365,135.19946,2782.0
三宮,神戸新交通,ポートアイランド線,34.694509999999994,135.195295,52486.0
北埠頭,神戸新交通,ポートアイランド線,34.673564999999996,135.21451,1701.0
南公園,神戸新交通,ポートアイランド線,34.66467,135.21706999999998,4226.0
みなとじま,神戸新交通,ポートアイランド線,34.669065,135.209995,11996.0
中公園,神戸新交通,ポートアイランド線,34.673095,135.20752,5970.0
医療センター,神戸新交通,ポートアイランド線,34.658519999999996,135.21641,12621.0
計算科学センター,神戸新交通,ポートアイランド線,34.65481,135.22153500000002,3492.0
神戸空港,神戸新交通,ポートアイランド線,34.63735,135.228975,4058.0
岩瀬浜,富山地方鉄道,富山港線,36.761269999999996,137.23411,483.0
競輪場前,富山地方鉄道,富山港線,36.75749,137.233945,367.0
東岩瀬,富山地方鉄道,富山港線,36.751945,137.230505,256.0
インテック本社前,富山地方鉄道,富山港線,36.703625,137.21641499999998,273.0
萩浦小学校前,富山地方鉄道,富山港線,36.74803981,137.2283632,252.0
蓮町（馬場記念公園前）,富山地方鉄道,富山港線,36.742215,137.22759000000002,987.0
犬島新町,富山地方鉄道,富山港線,36.735095,137.22663,302.0
城川原,富山地方鉄道,富山港線,36.73113,137.22609999999997,660.0
越中中島,富山地方鉄道,富山港線,36.722195,137.224895,444.0
粟島（大阪屋ショップ前）,富山地方鉄道,富山港線,36.719145,137.22482000000002,633.0
下奥井,富山地方鉄道,富山港線,36.711920000000006,137.22458999999998,434.0
奥田中学校前,富山地方鉄道,富山港線,36.70357,137.22360500000002,350.0
富山駅,富山地方鉄道,富山港線,36.70175475333333,137.21299668666666,2324.0
盛岡,アイジーアールいわて銀河鉄道,いわて銀河鉄道線,39.701195,141.136375,9448.0
御堂,アイジーアールいわて銀河鉄道,いわて銀河鉄道線,40.00436,141.23705,56.0
二戸,アイジーアールいわて銀河鉄道,いわて銀河鉄道線,40.25983,141.28598499999998,586.0
小鳥谷,アイジーアールいわて銀河鉄道,いわて銀河鉄道線,40.17111666666667,141.30773666666667,73.0
渋民,アイジーアールいわて銀河鉄道,いわて銀河鉄道線,39.834745,141.15422999999998,539.0
斗米,アイジーアールいわて銀河鉄道,いわて銀河鉄道線,40.285606666666666,141.29091333333335,141.0
いわて沼宮内,アイジーアールいわて銀河鉄道,いわて銀河鉄道線,39.960589999999996,141.21707500000002,724.0
厨川,アイジーアールいわて銀河鉄道,いわて銀河鉄道線,39.74408,141.12886,2747.0
岩手川口,アイジーアールいわて銀河鉄道,いわて銀河鉄道線,39.919313333333335,141.19937333333334,228.0
一戸,アイジーアールいわて銀河鉄道,いわて銀河鉄道線,40.210374,141.297388,482.0
金田一温泉,アイジーアールいわて銀河鉄道,いわて銀河鉄道線,40.3230975,141.3038325,185.0
滝沢,アイジーアールいわて銀河鉄道,いわて銀河鉄道線,39.799,141.149555,2592.0
小繋,アイジーアールいわて銀河鉄道,いわて銀河鉄道線,40.123104999999995,141.26042,8.0
奥中山高原,アイジーアールいわて銀河鉄道,いわて銀河鉄道線,40.066155,141.2285,295.0
目時,アイジーアールいわて銀河鉄道,いわて銀河鉄道線,40.352050000000006,141.289575,1.0
好摩,アイジーアールいわて銀河鉄道,いわて銀河鉄道線,39.87416,141.173675,1415.0
青山,アイジーアールいわて銀河鉄道,いわて銀河鉄道線,39.72465333333333,141.11829666666665,3009.0
巣子,アイジーアールいわて銀河鉄道,いわて銀河鉄道線,39.783426666666664,141.14864666666668,849.0
巣子,アイジーアールいわて銀河鉄道,いわて銀河鉄道線,39.78337500000001,141.1489,1.0
上総中野,いすみ鉄道,いすみ線,35.25004,140.199595,1.0
大多喜,いすみ鉄道,いすみ線,35.286535,140.24383999999998,195.0
東総元,いすみ鉄道,いすみ線,35.259445,140.24763,3.0
上総中川,いすみ鉄道,いすみ線,35.282705,140.28055999999998,10.0
国吉,いすみ鉄道,いすみ線,35.280424999999994,140.31399,73.0
久我原,いすみ鉄道,いすみ線,35.25022,140.24766499999998,9.0
上総東,いすみ鉄道,いすみ線,35.26329,140.344905,24.0
西畑,いすみ鉄道,いすみ線,35.250526666666666,140.21517666666668,4.0
小谷松,いすみ鉄道,いすみ線,35.268975,140.25104,4.0
総元,いすみ鉄道,いすみ線,35.24057,140.24036,11.0
西大原,いすみ鉄道,いすみ線,35.260515,140.377975,13.0
新田野,いすみ鉄道,いすみ線,35.27599,140.328525,6.0
大原,いすみ鉄道,いすみ線,35.25084666666667,140.39103333333333,249.0
西長田ゆりの里,えちぜん鉄道,三国芦原線,36.15358500000001,136.206495,137.0
鷲塚針原,えちぜん鉄道,三国芦原線,36.120239999999995,136.20481,147.0
西別院,えちぜん鉄道,三国芦原線,36.075255,136.22298999999998,155.0
中角,えちぜん鉄道,三国芦原線,36.101119999999995,136.204445,36.0
新田塚,えちぜん鉄道,三国芦原線,36.092575,136.20528000000002,257.0
番田,えちぜん鉄道,三国芦原線,36.21253,136.20252,14.0
福井口,えちぜん鉄道,三国芦原線,36.071495,136.2334,194.0
三国,えちぜん鉄道,三国芦原線,36.21692,136.14995,294.0
太郎丸エンゼルランド,えちぜん鉄道,三国芦原線,36.131335,136.20569,137.0
福大前西福井,えちぜん鉄道,三国芦原線,36.074405,136.21013,873.0
大関,えちぜん鉄道,三国芦原線,36.18663,136.20378,56.0
三国神社,えちぜん鉄道,三国芦原線,36.214885,136.15833500000002,58.0
水居,えちぜん鉄道,三国芦原線,36.219210000000004,136.172305,21.0
あわら湯のまち,えちぜん鉄道,三国芦原線,36.22296,136.1938,201.0
西春江ハートピア,えちぜん鉄道,三国芦原線,36.1389,136.20622,120.0
田原町,えちぜん鉄道,三国芦原線,36.07499,136.21764000000002,1357.0
下兵庫こうふく,えちぜん鉄道,三国芦原線,36.17012,136.20259333333334,58.0
三国港,えちぜん鉄道,三国芦原線,36.220095,136.140355,105.0
本荘,えちぜん鉄道,三国芦原線,36.204625,136.20316000000003,56.0
志比堺,えちぜん鉄道,勝山永平寺線,36.09777,136.311005,14.0
越前竹原,えちぜん鉄道,勝山永平寺線,36.073933333333336,136.41303,42.0
保田,えちぜん鉄道,勝山永平寺線,36.06992,136.45165333333333,3.0
山王,えちぜん鉄道,勝山永平寺線,36.079119999999996,136.39245333333335,48.0
勝山,えちぜん鉄道,勝山永平寺線,36.05592333333333,136.4922,275.0
越前野中,えちぜん鉄道,勝山永平寺線,36.08289,136.37687666666667,15.0
松岡,えちぜん鉄道,勝山永平寺線,36.094030000000004,136.30172499999998,141.0
発坂,えちぜん鉄道,勝山永平寺線,36.07259,136.46616333333333,40.0
光明寺,えちぜん鉄道,勝山永平寺線,36.08842,136.34455,8.0
永平寺口,えちぜん鉄道,勝山永平寺線,36.095805,136.32674500000002,166.0
小舟渡,えちぜん鉄道,勝山永平寺線,36.07553333333333,136.43405333333334,6.0
轟,えちぜん鉄道,勝山永平寺線,36.086839999999995,136.3611,41.0
下志比,えちぜん鉄道,勝山永平寺線,36.09063,136.336405,36.0
比島,えちぜん鉄道,勝山永平寺線,36.06597666666667,136.48411333333334,1.0
越前新保,えちぜん鉄道,勝山永平寺線,36.080380000000005,136.25095,222.0
越前開発,えちぜん鉄道,勝山永平寺線,36.075305,136.24128000000002,187.0
福井,えちぜん鉄道,勝山永平寺線,36.0621,136.22406,2479.0
越前島橋,えちぜん鉄道,勝山永平寺線,36.09012,136.277265,55.0
観音町,えちぜん鉄道,勝山永平寺線,36.09183,136.28969,291.0
東藤島,えちぜん鉄道,勝山永平寺線,36.08663,136.269855,38.0
新福井,えちぜん鉄道,勝山永平寺線,36.064835,136.22693,19.0
追分口,えちぜん鉄道,勝山永平寺線,36.08249,136.261375,33.0
東多良木,くま川鉄道,湯前線,32.272245,130.95080000000002,1.0
一武,くま川鉄道,湯前線,32.21456,130.83994,49.0
木上,くま川鉄道,湯前線,32.224275000000006,130.85890999999998,1.0
公立病院前,くま川鉄道,湯前線,32.256035,130.92189000000002,12.0
多良木,くま川鉄道,湯前線,32.262755,130.93319000000002,226.0
あさぎり,くま川鉄道,湯前線,32.23625,130.89376,504.0
湯前,くま川鉄道,湯前線,32.281365,130.979865,231.0
新鶴羽,くま川鉄道,湯前線,32.275445000000005,130.96621,7.0
肥後西村,くま川鉄道,湯前線,32.20227,130.808865,326.0
おかどめ幸福,くま川鉄道,湯前線,32.231449999999995,130.87510500000002,80.0
東免田,くま川鉄道,湯前線,32.2502,130.91302000000002,1.0
相良藩願成寺,くま川鉄道,湯前線,32.218365,130.769635,480.0
川村,くま川鉄道,湯前線,32.207235,130.79534999999998,2.0
人吉温泉,くま川鉄道,湯前線,32.216139999999996,130.753815,560.0
平原,しなの鉄道,しなの鉄道線,36.308635,138.45391,139.0
屋代高校前,しなの鉄道,しなの鉄道線,36.547955,138.13249,2009.0
中軽井沢,しなの鉄道,しなの鉄道線,36.347561999999996,138.593212,951.0
御代田,しなの鉄道,しなの鉄道線,36.31899,138.50632000000002,1359.0
軽井沢,しなの鉄道,しなの鉄道線,36.342863333333334,138.63513,2013.0
信濃追分,しなの鉄道,しなの鉄道線,36.335449999999994,138.558495,354.0
田中,しなの鉄道,しなの鉄道線,36.354415,138.32921,1925.0
上田,しなの鉄道,しなの鉄道線,36.39575333333334,138.25026,8248.0
西上田,しなの鉄道,しなの鉄道線,36.416875000000005,138.209055,1523.0
戸倉,しなの鉄道,しなの鉄道線,36.4928675,138.15308249999998,1856.0
坂城,しなの鉄道,しなの鉄道線,36.46198,138.18144999999998,1326.0
信濃国分寺,しなの鉄道,しなの鉄道線,36.37832,138.27383500000002,949.0
大屋,しなの鉄道,しなの鉄道線,36.36959,138.29712999999998,1431.0
滋野,しなの鉄道,しなの鉄道線,36.34232,138.3639075,611.0
屋代,しなの鉄道,しなの鉄道線,36.532422499999996,138.1282,3312.0
テクノさかき,しなの鉄道,しなの鉄道線,36.44058,138.1882,762.0
小諸,しなの鉄道,しなの鉄道線,36.32564166666666,138.42290166666666,5224.0
篠ノ井,しなの鉄道,しなの鉄道線,36.57695666666667,138.13807333333332,1.0
みどり中街,スカイレールサービス,広島短距離交通瀬野線,34.42765,132.595015,146.0
みどり中央,スカイレールサービス,広島短距離交通瀬野線,34.43024,132.589605,783.0
みどり口,スカイレールサービス,広島短距離交通瀬野線,34.422325,132.596315,914.0
和倉温泉,のと鉄道,七尾線,37.0747,136.92583333333334,1.0
七尾,のと鉄道,七尾線,37.04178,136.96422,1.0
笠師保,のと鉄道,七尾線,37.079505,136.85775,21.0
田鶴浜,のと鉄道,七尾線,37.065740000000005,136.89147,164.0
西岸,のと鉄道,七尾線,37.147665,136.87416000000002,34.0
穴水,のと鉄道,七尾線,37.228035000000006,136.904585,128.0
能登中島,のと鉄道,七尾線,37.109255,136.853615,99.0
能登鹿島,のと鉄道,七尾線,37.17979,136.897855,9.0
桐生,わたらせ渓谷鐵道,わたらせ渓谷線,36.411096666666666,139.33325333333332,1.0
花輪,わたらせ渓谷鐵道,わたらせ渓谷線,36.520830000000004,139.3077,41.0
水沼,わたらせ渓谷鐵道,わたらせ渓谷線,36.499849999999995,139.277595,57.0
神戸,わたらせ渓谷鐵道,わたらせ渓谷線,36.537505,139.356565,82.0
相老,わたらせ渓谷鐵道,わたらせ渓谷線,36.41030666666666,139.30440666666667,1100.0
通洞,わたらせ渓谷鐵道,わたらせ渓谷線,36.636865,139.43965,27.0
上神梅,わたらせ渓谷鐵道,わたらせ渓谷線,36.47007,139.257725,26.0
間藤,わたらせ渓谷鐵道,わたらせ渓谷線,36.65354,139.45009,90.0
足尾,わたらせ渓谷鐵道,わたらせ渓谷線,36.641915,139.447775,21.0
運動公園,わたらせ渓谷鐵道,わたらせ渓谷線,36.42041,139.30086,83.0
小中,わたらせ渓谷鐵道,わたらせ渓谷線,36.535655,139.337795,9.0
本宿,わたらせ渓谷鐵道,わたらせ渓谷線,36.481425,139.259345,25.0
大間々,わたらせ渓谷鐵道,わたらせ渓谷線,36.434614999999994,139.27755000000002,324.0
沢入,わたらせ渓谷鐵道,わたらせ渓谷線,36.58063,139.39628499999998,20.0
下新田,わたらせ渓谷鐵道,わたらせ渓谷線,36.40777666666667,139.31508666666667,44.0
原向,わたらせ渓谷鐵道,わたらせ渓谷線,36.61731,139.42052999999999,2.0
中野,わたらせ渓谷鐵道,わたらせ渓谷線,36.524275,139.317165,2.0
海部,阿佐海岸鉄道,阿佐東線,33.59342,134.351985,2.0
宍喰,阿佐海岸鉄道,阿佐東線,33.56693,134.30072,9.0
甲浦,阿佐海岸鉄道,阿佐東線,33.546883895,134.28784101000002,2.0
福島,阿武隈急行,阿武隈急行線,37.754315000000005,140.45992999999999,2602.0
角田,阿武隈急行,阿武隈急行線,37.979290000000006,140.77240999999998,1078.0
南角田,阿武隈急行,阿武隈急行線,37.964895,140.769615,28.0
大泉,阿武隈急行,阿武隈急行線,37.81989,140.56684,338.0
保原,阿武隈急行,阿武隈急行線,37.814565,140.55659500000002,754.0
卸町,阿武隈急行,阿武隈急行線,37.795455,140.47948,493.0
高子,阿武隈急行,阿武隈急行線,37.80838666666667,140.52718333333334,92.0
瀬上,阿武隈急行,阿武隈急行線,37.802375,140.49856499999999,220.0
兜,阿武隈急行,阿武隈急行線,37.8953925,140.64652,1.0
岡,阿武隈急行,阿武隈急行線,38.01902333333333,140.78034333333332,101.0
上保原,阿武隈急行,阿武隈急行線,37.80961,140.54282,320.0
二井田,阿武隈急行,阿武隈急行線,37.827815,140.580375,50.0
北丸森,阿武隈急行,阿武隈急行線,37.943105,140.77182,13.0
丸森,阿武隈急行,阿武隈急行線,37.93072,140.76172000000003,349.0
槻木,阿武隈急行,阿武隈急行線,38.07914,140.81018333333336,718.0
横倉,阿武隈急行,阿武隈急行線,37.996985,140.77605,11.0
富野,阿武隈急行,阿武隈急行線,37.87474,140.627465,16.0
東船岡,阿武隈急行,阿武隈急行線,38.050129999999996,140.789815,188.0
梁川,阿武隈急行,阿武隈急行線,37.846000000000004,140.60347,349.0
福島学院前,阿武隈急行,阿武隈急行線,37.79875333333333,140.48858833333335,471.0
向瀬上,阿武隈急行,阿武隈急行線,37.80658,140.51033,38.0
新田,阿武隈急行,阿武隈急行線,37.83776,140.593025,161.0
やながわ希望の森公園前,阿武隈急行,阿武隈急行線,37.857870000000005,140.61565000000002,186.0
あぶくま,阿武隈急行,阿武隈急行線,37.913405,140.68576000000002,5.0
新豊田,愛知環状鉄道,愛知環状鉄道線,35.08787857142857,137.15354142857143,9361.0
保見,愛知環状鉄道,愛知環状鉄道線,35.136715,137.1343625,1206.0
山口,愛知環状鉄道,愛知環状鉄道線,35.197895,137.1017025,1775.0
大門,愛知環状鉄道,愛知環状鉄道線,34.98258,137.15473500000002,2374.0
高蔵寺,愛知環状鉄道,愛知環状鉄道線,35.264255,137.04326,1.0
永覚,愛知環状鉄道,愛知環状鉄道線,35.02747,137.13898,463.0
新上挙母,愛知環状鉄道,愛知環状鉄道線,35.07179,137.15118,1214.0
八草,愛知環状鉄道,愛知環状鉄道線,35.17492,137.10715,4991.0
末野原,愛知環状鉄道,愛知環状鉄道線,35.03954,137.14690000000002,1982.0
瀬戸市,愛知環状鉄道,愛知環状鉄道線,35.22591333333333,137.07844333333333,5386.0
三河上郷,愛知環状鉄道,愛知環状鉄道線,35.01241,137.13276,1624.0
北野桝塚,愛知環状鉄道,愛知環状鉄道線,34.996285,137.13949,1677.0
中水野,愛知環状鉄道,愛知環状鉄道線,35.250455,137.071925,2857.0
三河豊田,愛知環状鉄道,愛知環状鉄道線,35.05543666666667,137.15093000000002,7272.0
篠原,愛知環状鉄道,愛知環状鉄道線,35.15473,137.12077,224.0
瀬戸口,愛知環状鉄道,愛知環状鉄道線,35.206565,137.08213,3565.0
愛環梅坪,愛知環状鉄道,愛知環状鉄道線,35.105154999999996,137.160915,1582.0
四郷,愛知環状鉄道,愛知環状鉄道線,35.12192666666667,137.16269333333332,1312.0
貝津,愛知環状鉄道,愛知環状鉄道線,35.13312,137.148055,993.0
北岡崎,愛知環状鉄道,愛知環状鉄道線,34.972255000000004,137.1577,3154.0
岡崎,愛知環状鉄道,愛知環状鉄道線,34.925783333333335,137.15723333333332,1.0
中岡崎,愛知環状鉄道,愛知環状鉄道線,34.95634,137.15278,3365.0
六名,愛知環状鉄道,愛知環状鉄道線,34.941285,137.151885,1299.0
杁ヶ池公園,愛知高速交通,東部丘陵線,35.171745,137.0379,2522.0
陶磁資料館南,愛知高速交通,東部丘陵線,35.17924,137.09705,216.0
公園西,愛知高速交通,東部丘陵線,35.1743,137.07685500000002,2037.0
愛・地球博記念公園,愛知高速交通,東部丘陵線,35.177665000000005,137.087535,3135.0
芸大通,愛知高速交通,東部丘陵線,35.17188,137.06122,1645.0
長久手古戦場,愛知高速交通,東部丘陵線,35.17147,137.049505,5078.0
はなみずき通,愛知高速交通,東部丘陵線,35.17752,137.03547,2267.0
八草,愛知高速交通,東部丘陵線,35.176514999999995,137.10635000000002,6145.0
藤が丘,愛知高速交通,東部丘陵線,35.182199999999995,137.022265,15396.0
多宝塔,鞍馬寺,鞍馬山鋼索鉄道,35.11644,135.77281,486.0
山門,鞍馬寺,鞍馬山鋼索鉄道,35.11455,135.772875,486.0
河芸,伊勢鉄道,伊勢線,34.780985,136.530995,33.0
伊勢上野,伊勢鉄道,伊勢線,34.800335000000004,136.54248,63.0
鈴鹿サーキット稲生,伊勢鉄道,伊勢線,34.8411,136.555215,127.0
中瀬古,伊勢鉄道,伊勢線,34.812145,136.543045,113.0
鈴鹿,伊勢鉄道,伊勢線,34.87847,136.588795,187.0
玉垣,伊勢鉄道,伊勢線,34.85514,136.57002999999997,172.0
徳田,伊勢鉄道,伊勢線,34.826145,136.54398500000002,20.0
河原田,伊勢鉄道,伊勢線,34.911235000000005,136.599275,1.0
東一身田,伊勢鉄道,伊勢線,34.758735,136.51209999999998,53.0
津,伊勢鉄道,伊勢線,34.73437333333333,136.51072333333335,1.0
稲梓,伊豆急行,伊豆急行線,34.72206,138.9494,28.0
伊豆熱川,伊豆急行,伊豆急行線,34.817212857142856,139.06945285714286,626.0
蓮台寺,伊豆急行,伊豆急行線,34.699466666666666,138.94129,473.0
片瀬白田,伊豆急行,伊豆急行線,34.80185,139.06122,216.0
河津,伊豆急行,伊豆急行線,34.747436666666665,138.99591333333333,945.0
伊豆北川,伊豆急行,伊豆急行線,34.827275,139.07572499999998,32.0
伊豆急下田,伊豆急行,伊豆急行線,34.679689999999994,138.944285,2052.0
南伊東,伊豆急行,伊豆急行線,34.957755000000006,139.088035,753.0
今井浜海岸,伊豆急行,伊豆急行線,34.753715,139.00467,195.0
富戸,伊豆急行,伊豆急行線,34.910039999999995,139.131685,221.0
城ヶ崎海岸,伊豆急行,伊豆急行線,34.890185,139.1219275,447.0
伊豆高原,伊豆急行,伊豆急行線,34.87746,139.10817500000002,1756.0
伊豆稲取,伊豆急行,伊豆急行線,34.774555,139.03737,950.0
伊豆大川,伊豆急行,伊豆急行線,34.84335,139.07407,111.0
伊東,伊豆急行,伊豆急行線,34.974835,139.092105,1.0
川奈,伊豆急行,伊豆急行線,34.950885,139.12483500000002,824.0
十国登り口,十国峠,十国鋼索線,35.12768,139.03743,270.0
十国峠,十国峠,十国鋼索線,35.12768,139.04083,270.0
修善寺,伊豆箱根鉄道,駿豆線,34.97927,138.95096999999998,3380.0
三島,伊豆箱根鉄道,駿豆線,35.125855,138.910635,12640.0
大仁,伊豆箱根鉄道,駿豆線,34.994365,138.93746,1770.0
韮山,伊豆箱根鉄道,駿豆線,35.053285,138.94552,2520.0
牧之郷,伊豆箱根鉄道,駿豆線,34.988855,138.95442,367.0
伊豆長岡,伊豆箱根鉄道,駿豆線,35.039805,138.94751,3685.0
三島二日町,伊豆箱根鉄道,駿豆線,35.11103,138.92593499999998,2325.0
原木,伊豆箱根鉄道,駿豆線,35.06549,138.943705,523.0
大場,伊豆箱根鉄道,駿豆線,35.0922,138.93938,3857.0
三島田町,伊豆箱根鉄道,駿豆線,35.1162025,138.9185625,2020.0
田京,伊豆箱根鉄道,駿豆線,35.014565,138.94577500000003,2021.0
伊豆仁田,伊豆箱根鉄道,駿豆線,35.078755,138.941565,2750.0
三島広小路,伊豆箱根鉄道,駿豆線,35.119344999999996,138.911215,2906.0
穴部,伊豆箱根鉄道,大雄山線,35.27986,139.14878,1185.0
和田河原,伊豆箱根鉄道,大雄山線,35.31594666666667,139.11821999999998,2526.0
小田原,伊豆箱根鉄道,大雄山線,35.256405,139.15650499999998,13727.0
岩原,伊豆箱根鉄道,大雄山線,35.298829999999995,139.12881,1213.0
大雄山,伊豆箱根鉄道,大雄山線,35.31904333333333,139.10370333333333,3908.0
井細田,伊豆箱根鉄道,大雄山線,35.268969999999996,139.157395,3167.0
緑町,伊豆箱根鉄道,大雄山線,35.25927,139.15861,442.0
相模沼田,伊豆箱根鉄道,大雄山線,35.292345,139.133905,2324.0
五百羅漢,伊豆箱根鉄道,大雄山線,35.275165,139.15555999999998,1215.0
塚原,伊豆箱根鉄道,大雄山線,35.301345,139.12672,1817.0
飯田岡,伊豆箱根鉄道,大雄山線,35.287904999999995,139.13932,1527.0
富士フイルム前,伊豆箱根鉄道,大雄山線,35.317703333333334,139.10951,1127.0
いよ立花,伊予鉄道,横河原線,33.827825000000004,132.772955,1828.0
久米,伊予鉄道,横河原線,33.816230000000004,132.80400500000002,2080.0
福音寺,伊予鉄道,横河原線,33.822535,132.7889,1455.0
横河原,伊予鉄道,横河原線,33.80342,132.88422,1093.0
牛渕,伊予鉄道,横河原線,33.795204999999996,132.856175,214.0
愛大医学部南口,伊予鉄道,横河原線,33.798095,132.87895,1121.0
牛渕団地前,伊予鉄道,横河原線,33.797709999999995,132.84625499999999,745.0
平井,伊予鉄道,横河原線,33.808710000000005,132.82868000000002,780.0
田窪,伊予鉄道,横河原線,33.79275,132.865735,660.0
鷹ノ子,伊予鉄道,横河原線,33.812525,132.815345,859.0
松山市,伊予鉄道,横河原線,33.83563,132.76184999999998,1.0
石手川公園,伊予鉄道,横河原線,33.831315000000004,132.76933,427.0
北久米,伊予鉄道,横河原線,33.81927,132.798685,1114.0
見奈良,伊予鉄道,横河原線,33.79304666666667,132.87367666666668,570.0
梅本,伊予鉄道,横河原線,33.80122,132.83902999999998,1275.0
南堀端,伊予鉄道,花園線,33.839439999999996,132.761255,1.0
松山市駅,伊予鉄道,花園線,33.836110000000005,132.76286,5473.0
余戸,伊予鉄道,郡中線,33.816255,132.733905,2000.0
土橋,伊予鉄道,郡中線,33.83233,132.75597,888.0
岡田,伊予鉄道,郡中線,33.799165,132.72436,806.0
鎌田,伊予鉄道,郡中線,33.81012,132.7299,926.0
古泉,伊予鉄道,郡中線,33.792485,132.71711499999998,1997.0
土居田,伊予鉄道,郡中線,33.8241,132.7441,2020.0
松前,伊予鉄道,郡中線,33.78591,132.70499999999998,838.0
地蔵町,伊予鉄道,郡中線,33.780005,132.70433500000001,471.0
郡中,伊予鉄道,郡中線,33.760705,132.70414499999998,874.0
郡中港,伊予鉄道,郡中線,33.75632,132.702145,854.0
新川,伊予鉄道,郡中線,33.77216,132.70440000000002,589.0
古町,伊予鉄道,高浜線,33.84697,132.75500499999998,3828.0
大手町,伊予鉄道,高浜線,33.839745,132.75522999999998,2137.0
西衣山,伊予鉄道,高浜線,33.85038,132.73401,1135.0
衣山,伊予鉄道,高浜線,33.852450000000005,132.743985,1840.0
三津,伊予鉄道,高浜線,33.863775000000004,132.719955,1580.0
山西,伊予鉄道,高浜線,33.85563,132.724165,2042.0
梅津寺,伊予鉄道,高浜線,33.87462,132.70763,272.0
高浜,伊予鉄道,高浜線,33.883444999999995,132.70219,823.0
港山,伊予鉄道,高浜線,33.869575,132.7134,268.0
本町一丁目,伊予鉄道,城南線,33.840755,132.75865,1.0
市役所前,伊予鉄道,城南線,33.83995,132.764625,532.0
南町,伊予鉄道,城南線,33.84739,132.77952,745.0
大街道,伊予鉄道,城南線,33.84125,132.76966499999997,3494.0
道後温泉,伊予鉄道,城南線,33.850355,132.785045,2074.0
勝山町,伊予鉄道,城南線,33.841750000000005,132.77482,1103.0
上一万,伊予鉄道,城南線,33.84681,132.77543500000002,1021.0
道後公園,伊予鉄道,城南線,33.848335000000006,132.78495,481.0
平和通一丁目,伊予鉄道,連絡線,33.847715,132.77445,1.0
警察署前,伊予鉄道,城南線,33.844620000000006,132.77536500000002,691.0
県庁前,伊予鉄道,城南線,33.841170000000005,132.766345,602.0
木屋町,伊予鉄道,城北線,33.853425,132.76098000000002,435.0
鉄砲町,伊予鉄道,城北線,33.848285000000004,132.768915,497.0
高砂町,伊予鉄道,城北線,33.851749999999996,132.762395,212.0
萱町六丁目,伊予鉄道,城北線,33.85178,132.75621999999998,248.0
赤十字病院前,伊予鉄道,城北線,33.848115,132.77238,1001.0
清水町,伊予鉄道,城北線,33.84924,132.76425999999998,297.0
本町六丁目,伊予鉄道,城北線,33.85346,132.75823,660.0
大手町駅前,伊予鉄道,大手町線,33.840315000000004,132.75547,374.0
ＪＲ松山駅前,伊予鉄道,大手町線,33.840725000000006,132.75234,2668.0
宮田町,伊予鉄道,大手町線,33.84392,132.75261,614.0
西堀端,伊予鉄道,大手町線,33.8403,132.758085,358.0
本町五丁目,伊予鉄道,本町線,33.850804999999994,132.75875,26.0
本町四丁目,伊予鉄道,本町線,33.848055,132.75873,23.0
本町六丁目,伊予鉄道,本町線,33.85313,132.75884,660.0
本町三丁目,伊予鉄道,本町線,33.845124999999996,132.758695,26.0
総社,井原鉄道,井原線,34.67418000000001,133.738155,202.0
清音,井原鉄道,井原線,34.644035,133.733505,1424.0
神辺,井原鉄道,井原線,34.537440000000004,133.37866000000002,503.0
御領,井原鉄道,井原線,34.5646925,133.40221,93.0
いずえ,井原鉄道,井原線,34.587975,133.450645,56.0
吉備真備,井原鉄道,井原線,34.62681666666666,133.69217,514.0
備中呉妹,井原鉄道,井原線,34.62163,133.6618475,87.0
小田,井原鉄道,井原線,34.606015,133.54241000000002,100.0
矢掛,井原鉄道,井原線,34.629305,133.590235,733.0
湯野,井原鉄道,井原線,34.55286,133.38699999999997,132.0
子守唄の里高屋,井原鉄道,井原線,34.58173,133.433325,192.0
三谷,井原鉄道,井原線,34.61643,133.619625,65.0
井原,井原鉄道,井原線,34.592775,133.46908000000002,801.0
早雲の里荏原,井原鉄道,井原線,34.59668,133.50779,209.0
川辺宿,井原鉄道,井原線,34.63241,133.71501999999998,189.0
川跡,一畑電車,大社線,35.395145,132.77641,1.0
遥堪,一畑電車,大社線,35.38922,132.72629,48.0
高浜,一畑電車,大社線,35.39072,132.74668666666665,92.0
浜山公園北口,一畑電車,大社線,35.389070000000004,132.708135,115.0
出雲大社前,一畑電車,大社線,35.393265,132.68766,479.0
旅伏,一畑電車,北松江線,35.421189999999996,132.80686,132.0
伊野灘,一畑電車,北松江線,35.461245,132.90088500000002,22.0
松江フォーゲルパーク,一畑電車,北松江線,35.474905,132.94369999999998,21.0
園,一畑電車,北松江線,35.456135,132.86813,43.0
湖遊館新駅,一畑電車,北松江線,35.452685,132.862145,90.0
朝日ヶ丘,一畑電車,北松江線,35.480956666666664,132.98778000000001,177.0
長江,一畑電車,北松江線,35.479839999999996,132.974315,36.0
布崎,一畑電車,北松江線,35.450235,132.855005,122.0
松江しんじ湖温泉,一畑電車,北松江線,35.467079999999996,133.04539499999998,1271.0
大津町,一畑電車,北松江線,35.369095,132.77432499999998,231.0
高ノ宮,一畑電車,北松江線,35.4718,132.930435,15.0
松江イングリッシュガーデン前,一畑電車,北松江線,35.47735,133.003985,85.0
武志,一畑電車,北松江線,35.388000000000005,132.77327000000002,55.0
美談,一畑電車,北松江線,35.412555,132.79810500000002,15.0
雲州平田,一畑電車,北松江線,35.43231,132.82368,936.0
出雲科学館パークタウン前,一畑電車,北松江線,35.363065,132.76650999999998,65.0
大寺,一畑電車,北松江線,35.40442,132.78743500000002,15.0
秋鹿町,一畑電車,北松江線,35.47723,132.95673,105.0
一畑口,一畑電車,北松江線,35.4646,132.882845,176.0
津ノ森,一畑電車,北松江線,35.466350000000006,132.91905000000003,118.0
電鉄出雲市,一畑電車,北松江線,35.361145,132.757805,1151.0
木野,叡山電鉄,鞍馬線,35.071095,135.77653500000002,393.0
市原,叡山電鉄,鞍馬線,35.08816,135.76305,766.0
八幡前,叡山電鉄,鞍馬線,35.06617,135.792445,625.0
岩倉,叡山電鉄,鞍馬線,35.07121333333333,135.78637333333333,1284.0
京都精華大前,叡山電鉄,鞍馬線,35.073055,135.76891,1069.0
宝ヶ池,叡山電鉄,鞍馬線,35.058095,135.792315,1.0
鞍馬,叡山電鉄,鞍馬線,35.112899999999996,135.772255,896.0
二軒茶屋,叡山電鉄,鞍馬線,35.07803,135.765815,1356.0
二ノ瀬,叡山電鉄,鞍馬線,35.097625,135.76298500000001,56.0
貴船口,叡山電鉄,鞍馬線,35.105868,135.7636,703.0
修学院,叡山電鉄,叡山本線,35.050005,135.7903,2892.0
八瀬比叡山口,叡山電鉄,叡山本線,35.06512,135.80834499999997,788.0
一乗寺,叡山電鉄,叡山本線,35.044380000000004,135.78752,2272.0
出町柳,叡山電鉄,叡山本線,35.030919999999995,135.773545,10900.0
茶山,叡山電鉄,叡山本線,35.038394999999994,135.78465,1778.0
三宅八幡,叡山電鉄,叡山本線,35.062375,135.79619,583.0
元田中,叡山電鉄,叡山本線,35.035015,135.78163,906.0
宝ヶ池,叡山電鉄,叡山本線,35.05809,135.79246,795.0
遠州小松,遠州鉄道,鉄道線,34.78423,137.77784,1518.0
上島,遠州鉄道,鉄道線,34.741545,137.74557,2677.0
浜北,遠州鉄道,鉄道線,34.79133,137.78434,2771.0
遠州芝本,遠州鉄道,鉄道線,34.824055,137.798745,1109.0
自動車学校前,遠州鉄道,鉄道線,34.747605,137.751635,1684.0
八幡,遠州鉄道,鉄道線,34.71707,137.73599,1516.0
遠州病院,遠州鉄道,鉄道線,34.710585,137.73343,1757.0
遠州岩水寺,遠州鉄道,鉄道線,34.834355,137.80113999999998,621.0
新浜松,遠州鉄道,鉄道線,34.70341,137.73246,11768.0
さぎの宮,遠州鉄道,鉄道線,34.757275,137.75732,1721.0
積志,遠州鉄道,鉄道線,34.76808,137.76341000000002,1476.0
美薗中央公園,遠州鉄道,鉄道線,34.798159999999996,137.78976,1734.0
遠州西ヶ崎,遠州鉄道,鉄道線,34.77678,137.7739,1439.0
遠州小林,遠州鉄道,鉄道線,34.808345,137.79555,2256.0
助信,遠州鉄道,鉄道線,34.723600000000005,137.73846500000002,1979.0
曳馬,遠州鉄道,鉄道線,34.733215,137.74146,2043.0
第一通り,遠州鉄道,鉄道線,34.707555,137.732855,2359.0
西鹿島,遠州鉄道,鉄道線,34.84675,137.807955,2189.0
みなとみらい,横浜高速鉄道,みなとみらい21線,35.457674999999995,139.63246,60292.0
元町・中華街,横浜高速鉄道,みなとみらい21線,35.442305000000005,139.65073999999998,45066.0
新高島,横浜高速鉄道,みなとみらい21線,35.461955,139.626485,5807.0
馬車道,横浜高速鉄道,みなとみらい21線,35.450075,139.6362,31131.0
日本大通り,横浜高速鉄道,みなとみらい21線,35.446795,139.64272499999998,20192.0
横浜,横浜高速鉄道,みなとみらい21線,35.466435000000004,139.62234999999998,1.0
吉野町,横浜市,1号線,35.435390000000005,139.61856666666668,14330.0
阪東橋,横浜市,1号線,35.43754,139.62497,19476.0
港南中央,横浜市,1号線,35.40123,139.59121499999998,16219.0
伊勢佐木長者町,横浜市,1号線,35.440945,139.63266,14658.0
上大岡,横浜市,1号線,35.409205,139.59598,62278.0
弘明寺,横浜市,1号線,35.422979999999995,139.6019975,17149.0
蒔田,横浜市,1号線,35.43031,139.61052999999998,18951.0
関内,横浜市,1号線,35.445769999999996,139.63602,1.0
湘南台,横浜市,1号線,35.39624,139.46612,39650.0
踊場,横浜市,1号線,35.40555,139.51857666666666,15539.0
舞岡,横浜市,1号線,35.402535,139.551265,4659.0
上永谷,横浜市,1号線,35.40137,139.57279,31275.0
下永谷,横浜市,1号線,35.40276,139.559045,9762.0
中田,横浜市,1号線,35.411155,139.51121999999998,14973.0
立場,横浜市,1号線,35.41438,139.5007,19353.0
戸塚,横浜市,1号線,35.401089999999996,139.53489000000002,70441.0
下飯田,横浜市,1号線,35.403375,139.482885,5279.0
仲町台,横浜市,3号線,35.535315,139.589515,26309.0
高島町,横浜市,3号線,35.458695000000006,139.62365,8109.0
北新横浜,横浜市,3号線,35.519215,139.61284999999998,11098.0
三ツ沢上町,横浜市,3号線,35.47642,139.60553000000002,12584.0
新羽,横浜市,3号線,35.527260000000005,139.61205333333334,18550.0
岸根公園,横浜市,3号線,35.49551,139.616545,10050.0
片倉町,横浜市,3号線,35.489999999999995,139.60643,18456.0
三ツ沢下町,横浜市,3号線,35.476485,139.61521499999998,10760.0
横浜,横浜市,3号線,35.465406,139.62014399999998,112370.0
センター北,横浜市,3号線,35.553205,139.578215,47833.0
新横浜,横浜市,3号線,35.509055000000004,139.617245,51526.0
桜木町,横浜市,3号線,35.44963666666667,139.63074333333336,33884.0
センター南,横浜市,3号線,35.5451675,139.574215,48839.0
あざみ野,横浜市,3号線,35.567955,139.55415499999998,62908.0
中川,横浜市,3号線,35.563085,139.56968,14361.0
八景島,横浜シーサイドライン,金沢シーサイドライン,35.340895,139.64083,3690.0
産業振興センター,横浜シーサイドライン,金沢シーサイドライン,35.353425,139.646325,3992.0
野島公園,横浜シーサイドライン,金沢シーサイドライン,35.330595,139.631555,3026.0
幸浦,横浜シーサイドライン,金沢シーサイドライン,35.358395,139.64369,4982.0
海の公園柴口,横浜シーサイドライン,金沢シーサイドライン,35.34212,139.63591000000002,2116.0
並木北,横浜シーサイドライン,金沢シーサイドライン,35.372015000000005,139.64273,3402.0
鳥浜,横浜シーサイドライン,金沢シーサイドライン,35.37718,139.6418,8866.0
金沢八景,横浜シーサイドライン,金沢シーサイドライン,35.33160604,139.620734815,17222.0
並木中央,横浜シーサイドライン,金沢シーサイドライン,35.365449999999996,139.642985,4704.0
新杉田,横浜シーサイドライン,金沢シーサイドライン,35.38571,139.620745,29788.0
海の公園南口,横浜シーサイドライン,金沢シーサイドライン,35.337199999999996,139.63214,1624.0
南部市場,横浜シーサイドライン,金沢シーサイドライン,35.380185,139.633205,4098.0
福浦,横浜シーサイドライン,金沢シーサイドライン,35.34961,139.64853499999998,3698.0
市大医学部,横浜シーサイドライン,金沢シーサイドライン,35.343905,139.65013,9338.0
柳川,岡山電気軌道,清輝橋線,34.66554,133.92533,1.0
田町,岡山電気軌道,清輝橋線,34.66077,133.92633,123.0
郵便局前,岡山電気軌道,清輝橋線,34.662745,133.92632500000002,409.0
新西大寺町筋,岡山電気軌道,清輝橋線,34.65872,133.92633,113.0
大雲寺前,岡山電気軌道,清輝橋線,34.656615,133.92632,87.0
清輝橋,岡山電気軌道,清輝橋線,34.651735,133.925855,559.0
西川緑道公園,岡山電気軌道,東山本線,34.66554,133.92328500000002,238.0
岡山駅前,岡山電気軌道,東山本線,34.66551,133.91968,5287.0
西大寺町,岡山電気軌道,東山本線,34.65865,133.93057499999998,394.0
東山・おかでんミュージアム,岡山電気軌道,東山本線,34.65618,133.94298,2315.0
県庁通り,岡山電気軌道,東山本線,34.66267499999999,133.93050499999998,1475.0
門田屋敷,岡山電気軌道,東山本線,34.656175000000005,133.93899,455.0
城下,岡山電気軌道,東山本線,34.665565,133.92976499999997,1185.0
中納言,岡山電気軌道,東山本線,34.657505,133.937565,228.0
小橋,岡山電気軌道,東山本線,34.65763,133.93659,140.0
壺川,沖縄都市モノレール,沖縄都市モノレール線,26.205785,127.67838,2704.0
牧志,沖縄都市モノレール,沖縄都市モノレール線,26.217115,127.69256,2849.0
安里,沖縄都市モノレール,沖縄都市モノレール線,26.216745,127.69573,3090.0
県庁前,沖縄都市モノレール,沖縄都市モノレール線,26.21439,127.679315,8230.0
美栄橋,沖縄都市モノレール,沖縄都市モノレール線,26.219160000000002,127.68442,3442.0
旭橋,沖縄都市モノレール,沖縄都市モノレール線,26.21195,127.67548,4906.0
儀保,沖縄都市モノレール,沖縄都市モノレール線,26.224494999999997,127.719295,1713.0
那覇空港,沖縄都市モノレール,沖縄都市モノレール線,26.20666,127.652285,5979.0
首里,沖縄都市モノレール,沖縄都市モノレール線,26.21917548,127.725557955,3241.0
おもろまち,沖縄都市モノレール,沖縄都市モノレール線,26.222659999999998,127.69848,6709.0
市立病院前,沖縄都市モノレール,沖縄都市モノレール線,26.227335,127.71027000000001,1389.0
小禄,沖縄都市モノレール,沖縄都市モノレール線,26.196550000000002,127.66703000000001,4959.0
赤嶺,沖縄都市モノレール,沖縄都市モノレール線,26.193265,127.660665,2834.0
奥武山公園,沖縄都市モノレール,沖縄都市モノレール線,26.200654999999998,127.67524,2617.0
養鱒公園,会津鉄道,会津線,37.224515,139.84181999999998,17.0
七ヶ岳登山口,会津鉄道,会津線,37.12418,139.71738333333334,4.0
湯野上温泉,会津鉄道,会津線,37.304035,139.895185,100.0
芦ノ牧温泉,会津鉄道,会津線,37.39541,139.932245,82.0
南若松,会津鉄道,会津線,37.4590375,139.9144475,33.0
田島高校前,会津鉄道,会津線,37.209555,139.80079,85.0
会津荒海,会津鉄道,会津線,37.15330666666667,139.73369,49.0
ふるさと公園,会津鉄道,会津線,37.24327,139.859025,33.0
中荒井,会津鉄道,会津線,37.180234999999996,139.750935,8.0
会津下郷,会津鉄道,会津線,37.255175,139.86494499999998,108.0
門田,会津鉄道,会津線,37.44251666666667,139.91378,2.0
塔のへつり,会津鉄道,会津線,37.274575,139.9015,23.0
会津田島,会津鉄道,会津線,37.203265,139.77431,430.0
あまや,会津鉄道,会津線,37.417210000000004,139.91759666666667,8.0
会津山村道場,会津鉄道,会津線,37.1442,139.73176,6.0
芦ノ牧温泉南,会津鉄道,会津線,37.334585000000004,139.918655,10.0
大川ダム公園,会津鉄道,会津線,37.34682,139.920775,1.0
会津長野,会津鉄道,会津線,37.2153,139.823845,13.0
弥五島,会津鉄道,会津線,37.26634,139.88997999999998,48.0
西若松,会津鉄道,会津線,37.48608333333333,139.91416,1.0
会津高原尾瀬口,会津鉄道,会津線,37.09002666666667,139.70512333333332,1.0
岳南原田,岳南電車,岳南線,35.16609,138.7046,210.0
須津,岳南電車,岳南線,35.160470000000004,138.73392,167.0
ジヤトコ前,岳南電車,岳南線,35.157759999999996,138.69004,150.0
比奈,岳南電車,岳南線,35.16148,138.71362499999998,95.0
岳南富士岡,岳南電車,岳南線,35.16095,138.72339,280.0
吉原,岳南電車,岳南線,35.14444,138.701235,1600.0
吉原本町,岳南電車,岳南線,35.16077,138.68973,830.0
岳南江尾,岳南電車,岳南線,35.155244999999994,138.75182999999998,160.0
本吉原,岳南電車,岳南線,35.16197,138.69281,260.0
神谷,岳南電車,岳南線,35.160979999999995,138.74302,130.0
基山,甘木鉄道,甘木線,33.421282000000005,130.532294,707.0
松崎,甘木鉄道,甘木線,33.399735,130.582105,247.0
大板井,甘木鉄道,甘木線,33.3985,130.561085,43.0
高田,甘木鉄道,甘木線,33.414204999999995,130.63402000000002,52.0
小郡,甘木鉄道,甘木線,33.39748,130.55316499999998,867.0
立野,甘木鉄道,甘木線,33.41255,130.53928333333332,119.0
今隈,甘木鉄道,甘木線,33.404145,130.594275,119.0
西太刀洗,甘木鉄道,甘木線,33.407846666666664,130.59924333333333,140.0
山隈,甘木鉄道,甘木線,33.414055000000005,130.61007,160.0
甘木,甘木鉄道,甘木線,33.41894333333333,130.65284,567.0
太刀洗,甘木鉄道,甘木線,33.413925,130.618875,185.0
大宝,関東鉄道,常総線,36.20316,139.97019,90.0
黒子,関東鉄道,常総線,36.2472,139.97500000000002,116.0
下館,関東鉄道,常総線,36.303865,139.978205,1.0
騰波ノ江,関東鉄道,常総線,36.22323,139.97628500000002,69.0
下妻,関東鉄道,常総線,36.182285,139.96448,1477.0
大田郷,関東鉄道,常総線,36.27827,139.959715,311.0
中妻,関東鉄道,常総線,36.047275,139.990705,174.0
寺原,関東鉄道,常総線,35.91172,140.054805,1512.0
宗道,関東鉄道,常総線,36.153620000000004,139.97059000000002,164.0
戸頭,関東鉄道,常総線,35.929365000000004,140.0143,3454.0
取手,関東鉄道,常総線,35.897385,140.06384,9190.0
北水海道,関東鉄道,常総線,36.03209,139.992835,384.0
石下,関東鉄道,常総線,36.117055,139.97438499999998,723.0
守谷,関東鉄道,常総線,35.95082,139.99213,12040.0
新取手,関東鉄道,常総線,35.91766,140.04216,1640.0
西取手,関東鉄道,常総線,35.908590000000004,140.059435,2094.0
南守谷,関東鉄道,常総線,35.93409,140.00276000000002,2104.0
稲戸井,関東鉄道,常総線,35.92612,140.02269,1221.0
小絹,関東鉄道,常総線,35.981139999999996,139.98335,1567.0
南石下,関東鉄道,常総線,36.102315000000004,139.97394500000001,281.0
三妻,関東鉄道,常総線,36.07346,139.98310500000002,159.0
玉村,関東鉄道,常総線,36.135515,139.969965,61.0
水海道,関東鉄道,常総線,36.01782,139.991395,2384.0
新守谷,関東鉄道,常総線,35.966375,139.9857825,3004.0
入地,関東鉄道,竜ヶ崎線,35.919015,140.15724,54.0
竜ヶ崎,関東鉄道,竜ヶ崎線,35.908555,140.17889,1656.0
佐貫,関東鉄道,竜ヶ崎線,35.929405,140.13826,1694.0
紀伊御坊,紀州鉄道,紀州鉄道線,33.894345,135.154765,40.0
御坊,紀州鉄道,紀州鉄道線,33.90762,135.15877,1.0
市役所前,紀州鉄道,紀州鉄道線,33.889605,135.15298,22.0
西御坊,紀州鉄道,紀州鉄道線,33.886345,135.152945,41.0
学門,紀州鉄道,紀州鉄道線,33.896245,135.15666,78.0
井の頭公園,京王電鉄,井の頭線,35.697295,139.58312,5804.0
吉祥寺,京王電鉄,井の頭線,35.702290000000005,139.58031,111397.0
三鷹台,京王電鉄,井の頭線,35.692049999999995,139.589295,17225.0
駒場東大前,京王電鉄,井の頭線,35.65867,139.684075,24995.0
神泉,京王電鉄,井の頭線,35.65718,139.6932525,8920.0
明大前,京王電鉄,井の頭線,35.669084999999995,139.65037999999998,1.0
渋谷,京王電鉄,井の頭線,35.65855066666666,139.699863,245291.0
永福町,京王電鉄,井の頭線,35.676225,139.64267,26119.0
東松原,京王電鉄,井の頭線,35.662636,139.655758,13498.0
浜田山,京王電鉄,井の頭線,35.681575,139.627575,23314.0
新代田,京王電鉄,井の頭線,35.662495,139.66138999999998,7316.0
高井戸,京王電鉄,井の頭線,35.683260000000004,139.61523,33435.0
久我山,京王電鉄,井の頭線,35.688140000000004,139.59932500000002,33392.0
富士見ヶ丘,京王電鉄,井の頭線,35.684805,139.6072325,11216.0
下北沢,京王電鉄,井の頭線,35.661604999999994,139.66656999999998,89091.0
池ノ上,京王電鉄,井の頭線,35.66037,139.673455,7684.0
西永福,京王電鉄,井の頭線,35.678875000000005,139.635155,13737.0
仙川,京王電鉄,京王線,35.66237,139.58522333333335,62685.0
代田橋,京王電鉄,京王線,35.671075,139.65939500000002,15523.0
笹塚,京王電鉄,京王線,35.67366,139.667175,61710.0
幡ヶ谷,京王電鉄,京王線,35.67676,139.67772000000002,25637.0
桜上水,京王電鉄,京王線,35.66764,139.631465,26402.0
八幡山,京王電鉄,京王線,35.670075,139.61448000000001,32793.0
芦花公園,京王電鉄,京王線,35.6705475,139.6084025,12011.0
新宿,京王電鉄,京王線,35.689985,139.69921,644129.0
下高井戸,京王電鉄,京王線,35.66611666666667,139.64202555555556,32729.0
上北沢,京王電鉄,京王線,35.668845000000005,139.623415,12675.0
明大前,京王電鉄,京王線,35.6683575,139.65055,76005.0
初台,京王電鉄,京王線,35.68142,139.68827,44463.0
千歳烏山,京王電鉄,京王線,35.667835,139.60037499999999,68095.0
新宿,京王電鉄,京王線,35.68843,139.69861500000002,1.0
調布,京王電鉄,京王線,35.65177,139.544735,98916.0
高幡不動,京王電鉄,京王線,35.662274999999994,139.4131,42577.0
北野,京王電鉄,京王線,35.644496000000004,139.354154,18307.0
飛田給,京王電鉄,京王線,35.659985,139.52366,18854.0
長沼,京王電鉄,京王線,35.64278,139.36588,3401.0
つつじヶ丘,京王電鉄,京王線,35.658,139.57519000000002,35556.0
柴崎,京王電鉄,京王線,35.65399,139.566625,14909.0
中河原,京王電鉄,京王線,35.6595025,139.457505,21536.0
東府中,京王電鉄,京王線,35.668769999999995,139.4954,17490.0
武蔵野台,京王電鉄,京王線,35.664135,139.511305,20000.0
百草園,京王電鉄,京王線,35.657375,139.431375,6627.0
布田,京王電鉄,京王線,35.649860000000004,139.551715,11846.0
平山城址公園,京王電鉄,京王線,35.647310000000004,139.379895,6860.0
多磨霊園,京王電鉄,京王線,35.66636,139.50212,11057.0
国領,京王電鉄,京王線,35.650185,139.55843,30015.0
京王八王子,京王電鉄,京王線,35.65805,139.3429775,43203.0
分倍河原,京王電鉄,京王線,35.668065,139.468355,74388.0
西調布,京王電鉄,京王線,35.65732,139.529505,14071.0
南平,京王電鉄,京王線,35.65514,139.39257500000002,8906.0
聖蹟桜ヶ丘,京王電鉄,京王線,35.65078666666667,139.44687333333331,51363.0
府中,京王電鉄,京王線,35.67219,139.4801,69727.0
府中競馬正門前,京王電鉄,競馬場線,35.668355,139.485165,693.0
高尾,京王電鉄,高尾線,35.641655,139.28170999999998,20573.0
山田,京王電鉄,高尾線,35.644355,139.320755,4269.0
めじろ台,京王電鉄,高尾線,35.643644,139.308514,12087.0
京王片倉,京王電鉄,高尾線,35.644360000000006,139.33696,4261.0
高尾山口,京王電鉄,高尾線,35.63238,139.269815,8335.0
狭間,京王電鉄,高尾線,35.64059,139.293645,6586.0
京王よみうりランド,京王電鉄,相模原線,35.632965,139.5172025,11225.0
橋本,京王電鉄,相模原線,35.59521,139.34354000000002,74104.0
京王堀之内,京王電鉄,相模原線,35.624475000000004,139.400325,25048.0
南大沢,京王電鉄,相模原線,35.6140725,139.3798,48778.0
京王多摩センター,京王電鉄,相模原線,35.625225,139.42416500000002,65805.0
多摩境,京王電鉄,相模原線,35.6017975,139.36696999999998,17891.0
若葉台,京王電鉄,相模原線,35.619365,139.47234,21542.0
京王永山,京王電鉄,相模原線,35.6302525,139.448165,36995.0
稲城,京王電鉄,相模原線,35.63614428571429,139.5002342857143,16631.0
京王稲田堤,京王電鉄,相模原線,35.63416818181818,139.5319427272727,44421.0
京王多摩川,京王電鉄,相模原線,35.64394166666667,139.53616333333332,12915.0
多摩動物公園,京王電鉄,動物園線,35.64964,139.40570666666667,2948.0
宇治,京阪電気鉄道,宇治線,34.895160000000004,135.806335,3352.0
木幡,京阪電気鉄道,宇治線,34.92622,135.79609499999998,3814.0
桃山南口,京阪電気鉄道,宇治線,34.931025,135.78351,3806.0
中書島,京阪電気鉄道,宇治線,34.92664,135.760055,1.0
六地蔵,京阪電気鉄道,宇治線,34.93198666666667,135.79322666666667,6649.0
黄檗,京阪電気鉄道,宇治線,34.914025,135.802935,3669.0
三室戸,京阪電気鉄道,宇治線,34.89896,135.80637000000002,3066.0
観月橋,京阪電気鉄道,宇治線,34.92815,135.768955,3133.0
神宮丸太町,京阪電気鉄道,鴨東線,35.018495,135.7722425,5684.0
出町柳,京阪電気鉄道,鴨東線,35.03003833333333,135.77263666666667,24373.0
三条,京阪電気鉄道,鴨東線,35.00886666666667,135.7723366666667,1.0
清水五条,京阪電気鉄道,京阪本線,34.996565000000004,135.7687,4993.0
祇園四条,京阪電気鉄道,京阪本線,35.003322000000004,135.77192599999998,32758.0
東福寺,京阪電気鉄道,京阪本線,34.98143,135.77001,10237.0
七条,京阪電気鉄道,京阪本線,34.9901,135.76763499999998,8826.0
香里園,京阪電気鉄道,京阪本線,34.78456,135.63094,38928.0
大和田,京阪電気鉄道,京阪本線,34.742934000000005,135.602552,14160.0
淀,京阪電気鉄道,京阪本線,34.9065155,135.720996,9489.0
守口市,京阪電気鉄道,京阪本線,34.73523666666667,135.56514333333334,22877.0
樟葉,京阪電気鉄道,京阪本線,34.86184666666667,135.67534,40642.0
伏見桃山,京阪電気鉄道,京阪本線,34.932505,135.76436,7470.0
御殿山,京阪電気鉄道,京阪本線,34.829165,135.653995,8962.0
枚方公園,京阪電気鉄道,京阪本線,34.811625,135.639495,13124.0
萱島,京阪電気鉄道,京阪本線,34.7474,135.61099666666667,18703.0
寝屋川市,京阪電気鉄道,京阪本線,34.764004,135.620788,40130.0
中書島,京阪電気鉄道,京阪本線,34.9269,135.760445,9299.0
西三荘,京阪電気鉄道,京阪本線,34.73734,135.57589000000002,9943.0
伏見稲荷,京阪電気鉄道,京阪本線,34.96913,135.769305,4799.0
丹波橋,京阪電気鉄道,京阪本線,34.938919999999996,135.76542,31314.0
藤森,京阪電気鉄道,京阪本線,34.95688,135.77022,9556.0
門真市,京阪電気鉄道,京阪本線,34.7381,135.583,17749.0
橋本,京阪電気鉄道,京阪本線,34.881993333333334,135.68422,3522.0
墨染,京阪電気鉄道,京阪本線,34.948170000000005,135.769105,5564.0
光善寺,京阪電気鉄道,京阪本線,34.79776,135.63017,14027.0
石清水八幡宮,京阪電気鉄道,京阪本線,34.88471833333333,135.69981833333335,6176.0
鳥羽街道,京阪電気鉄道,京阪本線,34.973706666666665,135.77000666666666,2264.0
枚方市,京阪電気鉄道,京阪本線,34.81624,135.64872000000003,59700.0
龍谷大前深草,京阪電気鉄道,京阪本線,34.964015,135.77014,5400.0
古川橋,京阪電気鉄道,京阪本線,34.73987333333333,135.59129,14932.0
牧野,京阪電気鉄道,京阪本線,34.84377333333333,135.66550333333336,15003.0
土居,京阪電気鉄道,京阪本線,34.730635,135.55978499999998,3694.0
北浜,京阪電気鉄道,京阪本線,34.691505,135.50759,22671.0
淀屋橋,京阪電気鉄道,京阪本線,34.6922125,135.503185,62695.0
天満橋,京阪電気鉄道,京阪本線,34.690394999999995,135.516295,35483.0
京橋,京阪電気鉄道,京阪本線,34.69702,135.53241500000001,1.0
森小路,京阪電気鉄道,京阪本線,34.719454999999996,135.55168,6448.0
千林,京阪電気鉄道,京阪本線,34.724055,135.55482,5998.0
関目,京阪電気鉄道,京阪本線,34.712625,135.546985,9120.0
京橋,京阪電気鉄道,京阪本線,34.69721,135.53233,105767.0
野江,京阪電気鉄道,京阪本線,34.707300000000004,135.543335,9246.0
滝井,京阪電気鉄道,京阪本線,34.7279,135.557445,4220.0
上栄町,京阪電気鉄道,京津線,35.005179999999996,135.86019,1262.0
四宮,京阪電気鉄道,京津線,34.991875,135.82396999999997,1819.0
大谷,京阪電気鉄道,京津線,34.99431,135.853165,283.0
京阪山科,京阪電気鉄道,京津線,34.99202,135.81696,3300.0
追分,京阪電気鉄道,京津線,34.991355,135.8375,1282.0
びわ湖浜大津,京阪電気鉄道,京津線,35.011295000000004,135.86401,1.0
御陵,京阪電気鉄道,京津線,34.99598,135.801885,1.0
河内森,京阪電気鉄道,交野線,34.773830000000004,135.685655,6926.0
宮之阪,京阪電気鉄道,交野線,34.813675,135.65669,4208.0
星ヶ丘,京阪電気鉄道,交野線,34.807595,135.659825,3364.0
私市,京阪電気鉄道,交野線,34.767635,135.68656499999997,1871.0
交野市,京阪電気鉄道,交野線,34.786915,135.67564,6709.0
村野,京阪電気鉄道,交野線,34.80186,135.664195,3742.0
郡津,京阪電気鉄道,交野線,34.79445,135.66989,4446.0
枚方市,京阪電気鉄道,交野線,34.816175,135.648865,1.0
ケーブル八幡宮山上,京阪電気鉄道,鋼索線,34.88093234,135.699868725,653.0
ケーブル八幡宮口,京阪電気鉄道,鋼索線,34.8842453975,135.69936473500002,653.0
南滋賀,京阪電気鉄道,石山坂本線,35.036500000000004,135.857685,1621.0
石場,京阪電気鉄道,石山坂本線,35.004735,135.87554,2184.0
三井寺,京阪電気鉄道,石山坂本線,35.01286,135.85986,1314.0
膳所本町,京阪電気鉄道,石山坂本線,34.99515,135.88923,2187.0
錦,京阪電気鉄道,石山坂本線,34.997625,135.88576999999998,1428.0
京阪石山,京阪電気鉄道,石山坂本線,34.979620000000004,135.89962666666668,5923.0
粟津,京阪電気鉄道,石山坂本線,34.98477,135.89562999999998,1045.0
京阪大津京,京阪電気鉄道,石山坂本線,35.022435,135.85568,4892.0
滋賀里,京阪電気鉄道,石山坂本線,35.043549999999996,135.859235,1500.0
京阪膳所,京阪電気鉄道,石山坂本線,34.99978,135.88085999999998,4366.0
坂本比叡山口,京阪電気鉄道,石山坂本線,35.070585,135.871285,1911.0
松ノ馬場,京阪電気鉄道,石山坂本線,35.065445,135.870325,1190.0
近江神宮前,京阪電気鉄道,石山坂本線,35.027564999999996,135.85574,1060.0
大津市役所前,京阪電気鉄道,石山坂本線,35.018375,135.855655,1738.0
瓦ヶ浜,京阪電気鉄道,石山坂本線,34.988325,135.89463999999998,1131.0
中ノ庄,京阪電気鉄道,石山坂本線,34.99082,135.89154,1279.0
穴太,京阪電気鉄道,石山坂本線,35.0556,135.864885,692.0
島ノ関,京阪電気鉄道,石山坂本線,35.0077,135.870965,1673.0
石山寺,京阪電気鉄道,石山坂本線,34.9673,135.903435,1652.0
唐橋前,京阪電気鉄道,石山坂本線,34.97337,135.903005,1282.0
青砥,京成電鉄,押上線,35.74587,139.85627,1.0
京成曳舟,京成電鉄,押上線,35.71864,139.82028,15648.0
押上,京成電鉄,押上線,35.71022,139.81241,164265.0
八広,京成電鉄,押上線,35.727196666666664,139.82831666666667,10956.0
四ツ木,京成電鉄,押上線,35.731715,139.834655,14542.0
京成立石,京成電鉄,押上線,35.73819,139.84816,29716.0
京成高砂,京成電鉄,金町線,35.75087,139.86659,1.0
京成金町,京成電鉄,金町線,35.76845,139.87034999999997,20203.0
柴又,京成電鉄,金町線,35.75643,139.87528333333333,6885.0
千葉中央,京成電鉄,千原線,35.607475,140.11776500000002,1.0
千葉寺,京成電鉄,千原線,35.590360000000004,140.13217,4287.0
大森台,京成電鉄,千原線,35.58399,140.14957,2626.0
ちはら台,京成電鉄,千原線,35.53369,140.1701225,4925.0
学園前,京成電鉄,千原線,35.5604675,140.1584,4558.0
おゆみ野,京成電鉄,千原線,35.5500175,140.16634,4542.0
京成津田沼,京成電鉄,千葉線,35.68364,140.024845,1.0
新千葉,京成電鉄,千葉線,35.612465,140.10862500000002,1831.0
みどり台,京成電鉄,千葉線,35.625295,140.097325,6520.0
京成稲毛,京成電鉄,千葉線,35.637249999999995,140.08571,6429.0
京成千葉,京成電鉄,千葉線,35.61162,140.114355,24842.0
検見川,京成電鉄,千葉線,35.65251,140.06676,3588.0
西登戸,京成電鉄,千葉線,35.617625000000004,140.10287,2485.0
京成幕張,京成電鉄,千葉線,35.6605625,140.056005,7009.0
京成幕張本郷,京成電鉄,千葉線,35.672920000000005,140.041675,13995.0
京成成田,京成電鉄,東成田線,35.77627,140.31546500000002,1.0
東成田,京成電鉄,東成田線,35.769684999999996,140.38725,1562.0
成田空港,京成電鉄,本線,35.765725,140.386305,9791.0
空港第2ビル,京成電鉄,本線,35.77296,140.38761,11292.0
京成大和田,京成電鉄,本線,35.712360000000004,140.10863,10220.0
志津,京成電鉄,本線,35.717405,140.14493,12136.0
黒部ダム,関西電力,関西電力,36.56702,137.66639999999998,4.0
扇沢,関西電力,関西電力,36.558769999999996,137.720832,4.0
京成西船,京成電鉄,本線,35.711690000000004,139.958845,9306.0
京成佐倉,京成電鉄,本線,35.725205,140.229865,14226.0
大神宮下,京成電鉄,本線,35.69396666666666,139.99137,4536.0
京成八幡,京成電鉄,本線,35.72386,139.92817,29244.0
京成大久保,京成電鉄,本線,35.685925,140.048605,29107.0
実籾,京成電鉄,本線,35.68685,140.06808,19804.0
谷津,京成電鉄,本線,35.685286,140.007648,8968.0
ユーカリが丘,京成電鉄,本線,35.72183,140.156385,16626.0
船橋競馬場,京成電鉄,本線,35.6896425,139.997955,17122.0
勝田台,京成電鉄,本線,35.71539,140.12604499999998,42061.0
宗吾参道,京成電鉄,本線,35.75235,140.280705,2340.0
公津の杜,京成電鉄,本線,35.76021,140.294445,11097.0
海神,京成電鉄,本線,35.70592499999999,139.971785,4911.0
東中山,京成電鉄,本線,35.714420000000004,139.952635,5518.0
鬼越,京成電鉄,本線,35.719764999999995,139.937865,4981.0
八千代台,京成電鉄,本線,35.701355,140.09077000000002,37994.0
京成中山,京成電鉄,本線,35.71695,139.94438,3168.0
京成臼井,京成電鉄,本線,35.730025,140.180805,14676.0
大佐倉,京成電鉄,本線,35.729929999999996,140.25072,301.0
京成船橋,京成電鉄,本線,35.699963333333336,139.98493666666667,73750.0
京成酒々井,京成電鉄,本線,35.736914999999996,140.270175,4833.0
京成関屋,京成電鉄,本線,35.743965,139.81185,20794.0
堀切菖蒲園,京成電鉄,本線,35.74765,139.82754,18149.0
菅野,京成電鉄,本線,35.728275,139.919395,4154.0
千住大橋,京成電鉄,本線,35.74241,139.79705,13616.0
京成上野,京成電鉄,本線,35.71131,139.77351,32115.0
江戸川,京成電鉄,本線,35.737835000000004,139.8958725,5143.0
日暮里,京成電鉄,本線,35.728123333333336,139.77136666666667,71278.0
新三河島,京成電鉄,本線,35.7373425,139.7741675,4868.0
国府台,京成電鉄,本線,35.73631,139.90354,9550.0
町屋,京成電鉄,本線,35.742340000000006,139.78157,16480.0
京成小岩,京成電鉄,本線,35.742215,139.883615,15397.0
市川真間,京成電鉄,本線,35.7312675,139.91178,6240.0
お花茶屋,京成電鉄,本線,35.747614999999996,139.83988499999998,27281.0
今出川,京都市,烏丸線,35.030058,135.75933400000002,19705.0
烏丸御池,京都市,烏丸線,35.010208320000004,135.75963289499998,78631.0
鞍馬口,京都市,烏丸線,35.037352,135.75932600000002,8221.0
九条,京都市,烏丸線,34.97911666666667,135.75975,4524.0
北山,京都市,烏丸線,35.05126,135.765605,11815.0
国際会館,京都市,烏丸線,35.06289,135.78508666666667,19168.0
四条,京都市,烏丸線,35.002810000000004,135.75967500000002,72324.0
京都,京都市,烏丸線,34.986565,135.75988,83366.0
松ヶ崎,京都市,烏丸線,35.051592,135.776318,8505.0
五条,京都市,烏丸線,34.995216666666664,135.75973333333332,11570.0
丸太町,京都市,烏丸線,35.01651,135.75949,19003.0
北大路,京都市,烏丸線,35.044055,135.75838499999998,1.0
北大路,京都市,烏丸線,35.04463,135.758375,25617.0
竹田,京都市,烏丸線,34.95599,135.75616000000002,24366.0
十条,京都市,烏丸線,34.9724925,135.7597125,6885.0
くいな橋,京都市,烏丸線,34.962565,135.757415,5542.0
山科,京都市,東西線,34.991330000000005,135.81735500000002,35165.0
東野,京都市,東西線,34.982400000000005,135.81682,10211.0
蹴上,京都市,東西線,35.00800666666667,135.79039666666668,7057.0
二条城前,京都市,東西線,35.01191333333333,135.75042,5441.0
京都市役所前,京都市,東西線,35.010909999999996,135.76895000000002,19454.0
二条,京都市,東西線,35.01202,135.74177,15474.0
東山,京都市,東西線,35.009440000000005,135.77982,11608.0
烏丸御池,京都市,東西線,35.01079843,135.75962338,1.0
三条京阪,京都市,東西線,35.0092175,135.7736925,20604.0
小野,京都市,東西線,34.96123333333333,135.81272333333334,6247.0
六地蔵,京都市,東西線,34.9337,135.796442,10769.0
椥辻,京都市,東西線,34.972680000000004,135.8149125,14979.0
石田,京都市,東西線,34.94055,135.803875,6286.0
醍醐,京都市,東西線,34.95032333333334,135.81055666666666,11537.0
三崎口,京浜急行電鉄,久里浜線,35.178218,139.633358,12642.0
北久里浜,京浜急行電鉄,久里浜線,35.249162,139.68639000000002,21129.0
YRP野比,京浜急行電鉄,久里浜線,35.21257,139.68525499999998,13451.0
新大津,京浜急行電鉄,久里浜線,35.25697,139.69019666666668,5693.0
津久井浜,京浜急行電鉄,久里浜線,35.19812,139.66485,5416.0
京急長沢,京浜急行電鉄,久里浜線,35.205445,139.674125,5922.0
三浦海岸,京浜急行電鉄,久里浜線,35.188285,139.65337499999998,8390.0
堀ノ内,京浜急行電鉄,久里浜線,35.263149999999996,139.687035,1.0
京急久里浜,京浜急行電鉄,久里浜線,35.23147,139.702215,34645.0
京急蒲田,京浜急行電鉄,空港線,35.56169946600001,139.724329318,1.0
穴守稲荷,京浜急行電鉄,空港線,35.550333333333334,139.74671666666666,15350.0
糀谷,京浜急行電鉄,空港線,35.55445,139.72959,23106.0
大鳥居,京浜急行電鉄,空港線,35.552319999999995,139.740225,22726.0
天空橋,京浜急行電鉄,空港線,35.54815333333334,139.75462000000002,12755.0
羽田空港第1・第2ターミナル,京浜急行電鉄,空港線,35.5498,139.786025,60345.0
逗子・葉山,京浜急行電鉄,逗子線,35.294225,139.580522,20830.0
神武寺,京浜急行電鉄,逗子線,35.30628,139.59289,5283.0
六浦,京浜急行電鉄,逗子線,35.322725,139.61149,12908.0
金沢八景,京浜急行電鉄,逗子線,35.33113,139.620125,1.0
京急川崎,京浜急行電鉄,大師線,35.533010000000004,139.70094,1.0
鈴木町,京浜急行電鉄,大師線,35.53538,139.72065500000002,9289.0
小島新田,京浜急行電鉄,大師線,35.534639999999996,139.747555,19280.0
東門前,京浜急行電鉄,大師線,35.53659,139.734325,10961.0
港町,京浜急行電鉄,大師線,35.535065,139.71262000000002,5959.0
大師橋,京浜急行電鉄,大師線,35.536605,139.740445,8910.0
川崎大師,京浜急行電鉄,大師線,35.53577,139.725995,14347.0
大森海岸,京浜急行電鉄,本線,35.58741,139.7353075,11390.0
立会川,京浜急行電鉄,本線,35.598505,139.738945,14460.0
青物横丁,京浜急行電鉄,本線,35.60919,139.743135,28663.0
北品川,京浜急行電鉄,本線,35.622426000000004,139.73931,7700.0
品川,京浜急行電鉄,本線,35.627714000000005,139.738094,179970.0
新馬場,京浜急行電鉄,本線,35.616662,139.741498,12487.0
鮫洲,京浜急行電鉄,本線,35.60507,139.742445,8851.0
泉岳寺,京浜急行電鉄,本線,35.638130000000004,139.73973,1.0
安針塚,京浜急行電鉄,本線,35.286682,139.642822,3902.0
京急鶴見,京浜急行電鉄,本線,35.506665,139.6775875,26636.0
杉田,京浜急行電鉄,本線,35.383905,139.61561,28438.0
南太田,京浜急行電鉄,本線,35.436890000000005,139.613635,15101.0
汐入,京浜急行電鉄,本線,35.280315,139.66251499999998,17753.0
逸見,京浜急行電鉄,本線,35.2806225,139.6526075,4063.0
大森町,京浜急行電鉄,本線,35.5725,139.73201,17825.0
京急新子安,京浜急行電鉄,本線,35.48721999999999,139.65585,6560.0
八丁畷,京浜急行電鉄,本線,35.523025000000004,139.69145,16816.0
追浜,京浜急行電鉄,本線,35.315691666666666,139.62488333333334,33914.0
雑色,京浜急行電鉄,本線,35.549775,139.715035,25458.0
生麦,京浜急行電鉄,本線,35.495599999999996,139.66733499999998,23896.0
弘明寺,京浜急行電鉄,本線,35.424099999999996,139.59690999999998,24646.0
花月総持寺,京浜急行電鉄,本線,35.500325000000004,139.67286000000001,5894.0
横須賀中央,京浜急行電鉄,本線,35.27883714285714,139.66978857142857,54149.0
能見台,京浜急行電鉄,本線,35.3605575,139.62923,26768.0
上大岡,京浜急行電鉄,本線,35.409345,139.59661,113119.0
金沢文庫,京浜急行電鉄,本線,35.34326333333333,139.62177666666665,54960.0
馬堀海岸,京浜急行電鉄,本線,35.25956,139.707915,7124.0
神奈川,京浜急行電鉄,本線,35.47125,139.627415,3913.0
浦賀,京浜急行電鉄,本線,35.251875999999996,139.71504,15655.0
黄金町,京浜急行電鉄,本線,35.439705000000004,139.62256000000002,19812.0
戸部,京浜急行電鉄,本線,35.45666,139.61956,13973.0
井土ヶ谷,京浜急行電鉄,本線,35.433875,139.600525,23997.0
京急東神奈川,京浜急行電鉄,本線,35.477554999999995,139.634925,19488.0
屏風浦,京浜急行電鉄,本線,35.394130000000004,139.61043999999998,14997.0
鶴見市場,京浜急行電鉄,本線,35.51759,139.68649,16882.0
横浜,京浜急行電鉄,本線,35.46625,139.62312500000002,247234.0
京急富岡,京浜急行電鉄,本線,35.36671,139.62976,17519.0
子安,京浜急行電鉄,本線,35.484575,139.64504,6337.0
県立大学,京浜急行電鉄,本線,35.269816666666664,139.67697,9823.0
京急田浦,京浜急行電鉄,本線,35.30099666666666,139.62521333333333,10449.0
神奈川新町,京浜急行電鉄,本線,35.481515,139.64017,15283.0
京急大津,京浜急行電鉄,本線,35.261005,139.69537000000003,4160.0
梅屋敷,京浜急行電鉄,本線,35.566784999999996,139.72816999999998,13486.0
六郷土手,京浜急行電鉄,本線,35.540530000000004,139.707565,13681.0
日ノ出町,京浜急行電鉄,本線,35.44563,139.62666,22286.0
平和島,京浜急行電鉄,本線,35.578654,139.734934,36555.0
ケーブル比叡,京福電気鉄道,鋼索線,35.064265,135.822165,425.0
ケーブル八瀬,京福電気鉄道,鋼索線,35.066925,135.80890499999998,425.0
妙心寺,京福電気鉄道,北野線,35.02628,135.71785,412.0
北野白梅町,京福電気鉄道,北野線,35.027424999999994,135.73081000000002,2446.0
龍安寺,京福電気鉄道,北野線,35.027834999999996,135.72143,848.0
常盤,京福電気鉄道,北野線,35.02037,135.7048,1042.0
等持院・立命館大学衣笠キャンパス前,京福電気鉄道,北野線,35.02783,135.72368,592.0
宇多野,京福電気鉄道,北野線,35.027055000000004,135.70988,384.0
鳴滝,京福電気鉄道,北野線,35.02353,135.7058,688.0
御室仁和寺,京福電気鉄道,北野線,35.026354999999995,135.71438999999998,458.0
帷子ノ辻,京福電気鉄道,北野線,35.015145000000004,135.700315,1.0
鹿王院,京福電気鉄道,嵐山本線,35.017044999999996,135.68525,870.0
西院,京福電気鉄道,嵐山本線,35.0032,135.7342725,3724.0
西大路三条,京福電気鉄道,嵐山本線,35.007895000000005,135.73253,734.0
四条大宮,京福電気鉄道,嵐山本線,35.003145,135.74824,4310.0
蚕ノ社,京福電気鉄道,嵐山本線,35.011712,135.71300200000002,550.0
嵐電嵯峨,京福電気鉄道,嵐山本線,35.0165,135.6818,1214.0
車折神社,京福電気鉄道,嵐山本線,35.016755,135.689045,1838.0
嵐山,京福電気鉄道,嵐山本線,35.015365,135.678215,3178.0
山ノ内,京福電気鉄道,嵐山本線,35.00832,135.72321499999998,746.0
太秦広隆寺,京福電気鉄道,嵐山本線,35.013275,135.708345,1114.0
有栖川,京福電気鉄道,嵐山本線,35.015190000000004,135.694015,1566.0
南桑,錦川鉄道,錦川清流線,34.20947,132.02097,5.0
河山,錦川鉄道,錦川清流線,34.236279999999994,131.98385000000002,15.0
柳瀬,錦川鉄道,錦川清流線,34.257374999999996,131.97679499999998,5.0
根笠,錦川鉄道,錦川清流線,34.210530000000006,131.99862000000002,8.0
錦町,錦川鉄道,錦川清流線,34.264804999999996,131.96304,125.0
川西,錦川鉄道,錦川清流線,34.156594999999996,132.17731,1.0
椋野,錦川鉄道,錦川清流線,34.193665,132.0335,16.0
南河内,錦川鉄道,錦川清流線,34.165944999999994,132.10338000000002,87.0
行波,錦川鉄道,錦川清流線,34.163325,132.087095,56.0
守内かさ神,錦川鉄道,錦川清流線,34.170325000000005,132.13530500000002,1.0
北河内,錦川鉄道,錦川清流線,34.175979999999996,132.06458,19.0
清流新岩国,錦川鉄道,錦川清流線,34.16249500000001,132.14769,59.0
大和西大寺,近畿日本鉄道,橿原線,34.693650000000005,135.78307,1.0
尼ヶ辻,近畿日本鉄道,橿原線,34.681105,135.783525,3986.0
西ノ京,近畿日本鉄道,橿原線,34.670649999999995,135.78316999999998,6229.0
九条,近畿日本鉄道,橿原線,34.65941,135.78296,3945.0
平端,近畿日本鉄道,橿原線,34.6075,135.782475,3574.0
石見,近畿日本鉄道,橿原線,34.571349999999995,135.78586,1834.0
田原本,近畿日本鉄道,橿原線,34.553084999999996,135.790875,11088.0
笠縫,近畿日本鉄道,橿原線,34.541425,135.79411,2044.0
近鉄郡山,近畿日本鉄道,橿原線,34.64605,135.78072500000002,15331.0
大和八木,近畿日本鉄道,橿原線,34.513065,135.79147,1.0
新ノ口,近畿日本鉄道,橿原線,34.525144999999995,135.79466,3735.0
ファミリー公園前,近畿日本鉄道,橿原線,34.598065,135.785045,443.0
八木西口,近畿日本鉄道,橿原線,34.509665,135.79075,5131.0
平端,近畿日本鉄道,橿原線,34.60671,135.78279,1.0
畝傍御陵前,近畿日本鉄道,橿原線,34.49277,135.79423500000001,3272.0
筒井,近畿日本鉄道,橿原線,34.62024,135.78066,6964.0
結崎,近畿日本鉄道,橿原線,34.584525,135.78483999999997,3372.0
橿原神宮前,近畿日本鉄道,橿原線,34.484049999999996,135.79431,15167.0
大阿太,近畿日本鉄道,吉野線,34.388400000000004,135.76643,98.0
越部,近畿日本鉄道,吉野線,34.386120000000005,135.80288000000002,293.0
下市口,近畿日本鉄道,吉野線,34.38402000000001,135.7869,2172.0
吉野神宮,近畿日本鉄道,吉野線,34.390185,135.84817,322.0
福神,近畿日本鉄道,吉野線,34.395425,135.75023,2244.0
壺阪山,近畿日本鉄道,吉野線,34.44968,135.794815,970.0
葛,近畿日本鉄道,吉野線,34.430975000000004,135.75959,272.0
吉野口,近畿日本鉄道,吉野線,34.42069,135.75067,1.0
岡寺,近畿日本鉄道,吉野線,34.474235,135.795955,1172.0
六田,近畿日本鉄道,吉野線,34.39008,135.82298500000002,651.0
飛鳥,近畿日本鉄道,吉野線,34.465005000000005,135.79817,1798.0
吉野,近畿日本鉄道,吉野線,34.377005,135.85356,232.0
市尾,近畿日本鉄道,吉野線,34.441722,135.776206,364.0
薬水,近畿日本鉄道,吉野線,34.407775,135.74329,55.0
大和上市,近畿日本鉄道,吉野線,34.39563,135.845705,335.0
京都,近畿日本鉄道,京都線,34.98461333333333,135.75834333333333,63506.0
東寺,近畿日本鉄道,京都線,34.979985,135.75259499999999,7123.0
伊勢田,近畿日本鉄道,京都線,34.88216,135.778995,5946.0
山田川,近畿日本鉄道,京都線,34.73779,135.79388,3669.0
大久保,近畿日本鉄道,京都線,34.874629999999996,135.77706,21953.0
富野荘,近畿日本鉄道,京都線,34.84016,135.772915,5388.0
狛田,近畿日本鉄道,京都線,34.78044,135.78951999999998,2623.0
木津川台,近畿日本鉄道,京都線,34.746696,135.796054,1854.0
三山木,近畿日本鉄道,京都線,34.798640000000006,135.78609,4307.0
向島,近畿日本鉄道,京都線,34.914725000000004,135.76977,13105.0
桃山御陵前,近畿日本鉄道,京都線,34.93333,135.76555,12759.0
近鉄丹波橋,近畿日本鉄道,京都線,34.938105,135.76642500000003,36707.0
新田辺,近畿日本鉄道,京都線,34.820718,135.772822,20895.0
上鳥羽口,近畿日本鉄道,京都線,34.965015,135.75272999999999,7417.0
小倉,近畿日本鉄道,京都線,34.893005,135.78188,13067.0
伏見,近畿日本鉄道,京都線,34.946020000000004,135.76149,6595.0
十条,近畿日本鉄道,京都線,34.973995,135.75245999999999,4960.0
久津川,近畿日本鉄道,京都線,34.864954999999995,135.774785,6111.0
近鉄宮津,近畿日本鉄道,京都線,34.791619999999995,135.78751499999998,414.0
高の原,近畿日本鉄道,京都線,34.72371,135.79185999999999,27758.0
新祝園,近畿日本鉄道,京都線,34.760326666666664,135.79277333333334,12803.0
平城,近畿日本鉄道,京都線,34.701465,135.78465,2621.0
興戸,近畿日本鉄道,京都線,34.80832,135.77868,8640.0
寺田,近畿日本鉄道,京都線,34.85327,135.772085,7109.0
近鉄新庄,近畿日本鉄道,御所線,34.4893,135.72728,2252.0
近鉄御所,近畿日本鉄道,御所線,34.46471,135.73238,2462.0
忍海,近畿日本鉄道,御所線,34.475975,135.732015,1238.0
尺土,近畿日本鉄道,御所線,34.508545,135.72081,1.0
松ヶ崎,近畿日本鉄道,山田線,34.596426666666666,136.51894666666666,711.0
伊勢中川,近畿日本鉄道,山田線,34.635315,136.47809999999998,1.0
明野,近畿日本鉄道,山田線,34.52149,136.66881999999998,1735.0
小俣,近畿日本鉄道,山田線,34.512835,136.68481,598.0
斎宮,近畿日本鉄道,山田線,34.537895,136.615295,1187.0
伊勢市,近畿日本鉄道,山田線,34.491945,136.710485,7201.0
明星,近畿日本鉄道,山田線,34.531395,136.64253,1053.0
東松阪,近畿日本鉄道,山田線,34.56555,136.5461,1933.0
漕代,近畿日本鉄道,山田線,34.540980000000005,136.601055,234.0
櫛田,近畿日本鉄道,山田線,34.54889,136.58304,991.0
宮町,近畿日本鉄道,山田線,34.497845,136.698565,986.0
伊勢中原,近畿日本鉄道,山田線,34.614735,136.49794,318.0
松阪,近畿日本鉄道,山田線,34.57729,136.5362175,12250.0
宇治山田,近畿日本鉄道,山田線,34.48831,136.7140225,6812.0
船津,近畿日本鉄道,志摩線,34.45687,136.842005,176.0
志摩神明,近畿日本鉄道,志摩線,34.316205,136.829985,234.0
穴川,近畿日本鉄道,志摩線,34.358895000000004,136.81588,27.0
鵜方,近畿日本鉄道,志摩線,34.329375,136.82573000000002,1347.0
志摩赤崎,近畿日本鉄道,志摩線,34.46982666666667,136.84171666666666,269.0
沓掛,近畿日本鉄道,志摩線,34.394130000000004,136.81443000000002,13.0
上之郷,近畿日本鉄道,志摩線,34.379325,136.81152,39.0
松尾,近畿日本鉄道,志摩線,34.432565,136.84006,111.0
賢島,近畿日本鉄道,志摩線,34.308385,136.819435,668.0
志摩磯部,近畿日本鉄道,志摩線,34.36956,136.805795,555.0
中之郷,近畿日本鉄道,志摩線,34.47961,136.84541000000002,183.0
加茂,近畿日本鉄道,志摩線,34.444205,136.84656,157.0
白木,近畿日本鉄道,志摩線,34.429204999999996,136.83116,31.0
五知,近畿日本鉄道,志摩線,34.406679999999994,136.810095,15.0
志摩横山,近畿日本鉄道,志摩線,34.333975,136.81835999999998,95.0
鳥羽,近畿日本鉄道,志摩線,34.48725,136.841725,1.0
服部川,近畿日本鉄道,信貴線,34.626455,135.64116,1598.0
信貴山口,近畿日本鉄道,信貴線,34.62010333333333,135.64235666666664,1114.0
河内山本,近畿日本鉄道,信貴線,34.627925,135.61917,1.0
生駒山上,近畿日本鉄道,生駒鋼索線,34.67948333333334,135.68053999999998,175.0
宝山寺,近畿日本鉄道,生駒鋼索線,34.68618,135.68935666666667,678.0
霞ヶ丘,近畿日本鉄道,生駒鋼索線,34.68109333333334,135.68334666666667,1.0
梅屋敷,近畿日本鉄道,生駒鋼索線,34.683125000000004,135.68675000000002,1.0
鳥居前,近畿日本鉄道,生駒鋼索線,34.692065,135.695915,504.0
生駒,近畿日本鉄道,生駒線,34.69303333333334,135.69821,1.0
南生駒,近畿日本鉄道,生駒線,34.665504999999996,135.70887,4424.0
一分,近畿日本鉄道,生駒線,34.675415,135.707975,4834.0
菜畑,近畿日本鉄道,生駒線,34.6855,135.70668666666666,3200.0
勢野北口,近畿日本鉄道,生駒線,34.6061,135.70101499999998,1651.0
信貴山下,近畿日本鉄道,生駒線,34.600905,135.695175,2098.0
竜田川,近畿日本鉄道,生駒線,34.61719,135.70466499999998,1585.0
王寺,近畿日本鉄道,生駒線,34.597715,135.70273500000002,8373.0
平群,近畿日本鉄道,生駒線,34.629270000000005,135.704365,2478.0
東山,近畿日本鉄道,生駒線,34.648705,135.7086,2959.0
元山上口,近畿日本鉄道,生駒線,34.640605,135.700795,1171.0
萩の台,近畿日本鉄道,生駒線,34.656980000000004,135.70898,2154.0
高安山,近畿日本鉄道,西信貴鋼索線,34.613925,135.653515,19.0
大三,近畿日本鉄道,大阪線,34.664045,136.36885999999998,321.0
東青山,近畿日本鉄道,大阪線,34.67564,136.32163500000001,31.0
赤目口,近畿日本鉄道,大阪線,34.599334999999996,136.0737,842.0
伊勢石橋,近畿日本鉄道,大阪線,34.656890000000004,136.40852,35.0
西青山,近畿日本鉄道,大阪線,34.676339999999996,136.238135,3.0
美旗,近畿日本鉄道,大阪線,34.662994999999995,136.13301,1215.0
青山町,近畿日本鉄道,大阪線,34.67306,136.177725,1259.0
川合高岡,近畿日本鉄道,大阪線,34.656405,136.43677000000002,744.0
名張,近畿日本鉄道,大阪線,34.621615000000006,136.095745,8841.0
伊賀上津,近畿日本鉄道,大阪線,34.682559999999995,136.204305,97.0
榊原温泉口,近畿日本鉄道,大阪線,34.674835,136.348805,727.0
桔梗が丘,近畿日本鉄道,大阪線,34.641185,136.11275999999998,4064.0
鶴橋,近畿日本鉄道,大阪線,34.665197500000005,135.530835,124506.0
今里,近畿日本鉄道,大阪線,34.664725,135.54991,9844.0
布施,近畿日本鉄道,大阪線,34.664085,135.56357,1.0
大阪上本町,近畿日本鉄道,大阪線,34.665475,135.52131,1.0
大阪上本町,近畿日本鉄道,大阪線,34.66610384333333,135.51932927,1.0
法善寺,近畿日本鉄道,大阪線,34.59519,135.626285,3483.0
関屋,近畿日本鉄道,大阪線,34.553754999999995,135.66791999999998,3102.0
室生口大野,近畿日本鉄道,大阪線,34.56612666666667,136.01527666666667,596.0
大和八木,近畿日本鉄道,大阪線,34.5131825,135.7919175,25969.0
榛原,近畿日本鉄道,大阪線,34.529830000000004,135.954615,7079.0
三本松,近畿日本鉄道,大阪線,34.57855,136.03584999999998,123.0
大和朝倉,近畿日本鉄道,大阪線,34.516040000000004,135.86896666666667,1726.0
大和高田,近畿日本鉄道,大阪線,34.51978,135.74232333333333,12854.0
堅下,近畿日本鉄道,大阪線,34.58843,135.627315,3757.0
二上,近畿日本鉄道,大阪線,34.546565,135.68812,8427.0
松塚,近畿日本鉄道,大阪線,34.52059,135.761195,1189.0
安堂,近畿日本鉄道,大阪線,34.580200000000005,135.629115,2110.0
恩智,近畿日本鉄道,大阪線,34.609875,135.62628,4861.0
長瀬,近畿日本鉄道,大阪線,34.649855,135.57761,21026.0
弥刀,近畿日本鉄道,大阪線,34.6414,135.58339,8621.0
久宝寺口,近畿日本鉄道,大阪線,34.634585,135.590565,4644.0
耳成,近畿日本鉄道,大阪線,34.512413333333335,135.81539,3197.0
築山,近畿日本鉄道,大阪線,34.52633,135.73273,2491.0
高安,近畿日本鉄道,大阪線,34.619659999999996,135.624365,9387.0
桜井,近畿日本鉄道,大阪線,34.513315,135.845955,13327.0
大阪教育大前,近畿日本鉄道,大阪線,34.555515,135.64477,4002.0
長谷寺,近畿日本鉄道,大阪線,34.52685,135.90648,626.0
近鉄下田,近畿日本鉄道,大阪線,34.541394999999994,135.70438000000001,4325.0
五位堂,近畿日本鉄道,大阪線,34.534684999999996,135.71819499999998,22097.0
大福,近畿日本鉄道,大阪線,34.512835,135.82987,1420.0
真菅,近畿日本鉄道,大阪線,34.51959,135.772795,4268.0
河内国分,近畿日本鉄道,大阪線,34.566715,135.63573000000002,13363.0
近鉄八尾,近畿日本鉄道,大阪線,34.62983,135.603545,32154.0
俊徳道,近畿日本鉄道,大阪線,34.65858,135.571615,6821.0
川西,近畿日本鉄道,長野線,34.49196499999999,135.59066,3577.0
喜志,近畿日本鉄道,長野線,34.522645,135.607245,13819.0
滝谷不動,近畿日本鉄道,長野線,34.481390000000005,135.586685,5412.0
河内長野,近畿日本鉄道,長野線,34.451105,135.57315499999999,10323.0
汐ノ宮,近畿日本鉄道,長野線,34.46701,135.57911000000001,1776.0
富田林,近畿日本鉄道,長野線,34.504335,135.60074,10982.0
古市,近畿日本鉄道,長野線,34.554047499999996,135.6091225,1.0
富田林西口,近畿日本鉄道,長野線,34.500275,135.59628,6073.0
池の浦,近畿日本鉄道,鳥羽線,34.47913,136.81841,837.0
五十鈴川,近畿日本鉄道,鳥羽線,34.476435,136.7273,2215.0
朝熊,近畿日本鉄道,鳥羽線,34.4772225,136.757435,77.0
平端,近畿日本鉄道,天理線,34.60673,135.783104,1.0
前栽,近畿日本鉄道,天理線,34.601145,135.81609,3079.0
二階堂,近畿日本鉄道,天理線,34.60203,135.79616,2994.0
天理,近畿日本鉄道,天理線,34.60119,135.82927999999998,7650.0
佐味田川,近畿日本鉄道,田原本線,34.585205,135.73108000000002,1206.0
黒田,近畿日本鉄道,田原本線,34.56838333333334,135.77781666666667,641.0
新王寺,近畿日本鉄道,田原本線,34.59768,135.704705,5967.0
但馬,近畿日本鉄道,田原本線,34.569424999999995,135.76833499999998,754.0
箸尾,近畿日本鉄道,田原本線,34.57028,135.75126,1451.0
西田原本,近畿日本鉄道,田原本線,34.55391,135.78955,4766.0
池部,近畿日本鉄道,田原本線,34.57877,135.737185,990.0
大輪田,近畿日本鉄道,田原本線,34.589169999999996,135.72038,1893.0
桜,近畿日本鉄道,湯の山線,34.996465,136.541755,2756.0
高角,近畿日本鉄道,湯の山線,34.983205,136.55446,779.0
中菰野,近畿日本鉄道,湯の山線,35.012299999999996,136.504245,939.0
湯の山温泉,近畿日本鉄道,湯の山線,35.011605,136.473695,354.0
伊勢川島,近畿日本鉄道,湯の山線,34.97766,136.56695000000002,1751.0
菰野,近畿日本鉄道,湯の山線,35.00872,136.517355,2092.0
大羽根園,近畿日本鉄道,湯の山線,35.012555000000006,136.494205,623.0
伊勢松本,近畿日本鉄道,湯の山線,34.969635,136.59073,2243.0
中川原,近畿日本鉄道,湯の山線,34.969325,136.60323499999998,1586.0
近鉄四日市,近畿日本鉄道,湯の山線,34.966395000000006,136.61835,1.0
柏原南口,近畿日本鉄道,道明寺線,34.581625,135.624985,757.0
道明寺,近畿日本鉄道,道明寺線,34.568375,135.62023,1.0
柏原,近畿日本鉄道,道明寺線,34.5866075,135.62323,1.0
石切,近畿日本鉄道,奈良線,34.684873333333336,135.65511444444442,7096.0
河内永和,近畿日本鉄道,奈良線,34.664245,135.57314,12299.0
河内花園,近畿日本鉄道,奈良線,34.662735,135.61843,10124.0
東生駒,近畿日本鉄道,奈良線,34.691903333333336,135.70958666666667,15295.0
額田,近畿日本鉄道,奈良線,34.675195,135.651115,2852.0
枚岡,近畿日本鉄道,奈良線,34.66954,135.648055,3942.0
河内小阪,近畿日本鉄道,奈良線,34.66398,135.58132,21865.0
若江岩田,近畿日本鉄道,奈良線,34.66311,135.60835500000002,14073.0
新大宮,近畿日本鉄道,奈良線,34.685424999999995,135.81068499999998,25307.0
富雄,近畿日本鉄道,奈良線,34.694205,135.73473,22911.0
瓢箪山,近畿日本鉄道,奈良線,34.6620075,135.638975,17867.0
八戸ノ里,近畿日本鉄道,奈良線,34.663725,135.589415,24061.0
学園前,近畿日本鉄道,奈良線,34.69701499999999,135.749805,42954.0
近鉄奈良,近畿日本鉄道,奈良線,34.68397,135.827855,42810.0
東花園,近畿日本鉄道,奈良線,34.662365,135.62679,16083.0
菖蒲池,近畿日本鉄道,奈良線,34.697925,135.761275,10698.0
小古曽,四日市あすなろう鉄道,内部線,34.928675,136.592245,224.0
赤堀,四日市あすなろう鉄道,内部線,34.959225,136.610435,439.0
追分,四日市あすなろう鉄道,内部線,34.933915,136.596135,496.0
南日永,四日市あすなろう鉄道,内部線,34.949905,136.601025,832.0
泊,四日市あすなろう鉄道,内部線,34.940405,136.598475,779.0
日永,四日市あすなろう鉄道,内部線,34.95596,136.604355,857.0
内部,四日市あすなろう鉄道,内部線,34.925533333333334,136.58695,703.0
あすなろう四日市,四日市あすなろう鉄道,内部線,34.966975,136.618575,4625.0
当麻寺,近畿日本鉄道,南大阪線,34.516485,135.70584,1198.0
河内松原,近畿日本鉄道,南大阪線,34.575495000000004,135.557415,25088.0
土師ノ里,近畿日本鉄道,南大阪線,34.571615,135.615615,6206.0
布忍,近畿日本鉄道,南大阪線,34.577844999999996,135.53941500000002,4541.0
高見ノ里,近畿日本鉄道,南大阪線,34.57518,135.546005,5817.0
上ノ太子,近畿日本鉄道,南大阪線,34.532945,135.63765,3629.0
河堀口,近畿日本鉄道,南大阪線,34.64103,135.524245,3189.0
高鷲,近畿日本鉄道,南大阪線,34.57149,135.584515,5842.0
大阪阿部野橋,近畿日本鉄道,南大阪線,34.645625,135.51451,134925.0
橿原神宮前,近畿日本鉄道,南大阪線,34.48348,135.793105,1.0
磐城,近畿日本鉄道,南大阪線,34.51129,135.710825,1090.0
浮孔,近畿日本鉄道,南大阪線,34.49801,135.75486,1226.0
今川,近畿日本鉄道,南大阪線,34.626305,135.531095,3582.0
河内天美,近畿日本鉄道,南大阪線,34.586056666666664,135.53543666666667,16444.0
恵我ノ荘,近畿日本鉄道,南大阪線,34.57356,135.57281999999998,8744.0
坊城,近畿日本鉄道,南大阪線,34.49346,135.765155,2576.0
藤井寺,近畿日本鉄道,南大阪線,34.571515000000005,135.594,31766.0
駒ヶ谷,近畿日本鉄道,南大阪線,34.54569333333333,135.62207666666666,1338.0
二上山,近畿日本鉄道,南大阪線,34.53867666666667,135.68657666666667,1144.0
針中野,近畿日本鉄道,南大阪線,34.617045,135.53305,8107.0
橿原神宮西口,近畿日本鉄道,南大阪線,34.486215,135.78133,1773.0
矢田,近畿日本鉄道,南大阪線,34.605905,135.53295500000002,8548.0
二上神社口,近畿日本鉄道,南大阪線,34.53202,135.69407,645.0
高田市,近畿日本鉄道,南大阪線,34.506724000000006,135.742966,6227.0
北田辺,近畿日本鉄道,南大阪線,34.63203,135.52894,5025.0
近鉄日本橋,近畿日本鉄道,難波線,34.666825,135.50623000000002,37028.0
大阪難波,阪神電気鉄道,阪神なんば線,34.66705666666667,135.49903,1.0
西日野,四日市あすなろう鉄道,八王子線,34.95295,136.59118999999998,1144.0
伏屋,近畿日本鉄道,名古屋線,35.14015,136.82782500000002,5175.0
近鉄名古屋,近畿日本鉄道,名古屋線,35.16936,136.88375,80878.0
烏森,近畿日本鉄道,名古屋線,35.152815000000004,136.86381,4779.0
近鉄八田,近畿日本鉄道,名古屋線,35.149525,136.85433849999998,3562.0
黄金,近畿日本鉄道,名古屋線,35.156274999999994,136.87080500000002,2629.0
米野,近畿日本鉄道,名古屋線,35.16126,136.87962,1237.0
伊勢朝日,近畿日本鉄道,名古屋線,35.038255,136.66887,3324.0
近鉄長島,近畿日本鉄道,名古屋線,35.097629999999995,136.69608,2288.0
近鉄富田,近畿日本鉄道,名古屋線,35.0064725,136.64938,18252.0
佐古木,近畿日本鉄道,名古屋線,35.119479999999996,136.752305,2309.0
益生,近畿日本鉄道,名古屋線,35.057784999999996,136.678585,2131.0
近鉄蟹江,近畿日本鉄道,名古屋線,35.12965,136.79521499999998,9892.0
川原町,近畿日本鉄道,名古屋線,34.9773025,136.6233075,1618.0
霞ヶ浦,近畿日本鉄道,名古屋線,34.993433333333336,136.63691666666668,3119.0
川越富洲原,近畿日本鉄道,名古屋線,35.016245,136.65976,5053.0
阿倉川,近畿日本鉄道,名古屋線,34.985225,136.62943,3704.0
桑名,近畿日本鉄道,名古屋線,35.066975,136.683375,20853.0
戸田,近畿日本鉄道,名古屋線,35.132605,136.807445,3870.0
富吉,近畿日本鉄道,名古屋線,35.123490000000004,136.76936999999998,4554.0
近鉄弥富,近畿日本鉄道,名古屋線,35.113585,136.727765,9797.0
南が丘,近畿日本鉄道,名古屋線,34.69199,136.49640666666667,3022.0
津新町,近畿日本鉄道,名古屋線,34.715545,136.4998975,10494.0
白塚,近畿日本鉄道,名古屋線,34.770705,136.532535,1341.0
近鉄四日市,近畿日本鉄道,名古屋線,34.966975,136.618575,37287.0
長太ノ浦,近畿日本鉄道,名古屋線,34.89152,136.62635,1030.0
久居,近畿日本鉄道,名古屋線,34.675565,136.477815,7931.0
千里,近畿日本鉄道,名古屋線,34.798514999999995,136.556195,2367.0
箕田,近畿日本鉄道,名古屋線,34.87961333333333,136.62204666666665,776.0
高田本山,近畿日本鉄道,名古屋線,34.755115,136.516375,1343.0
海山道,近畿日本鉄道,名古屋線,34.94331666666667,136.62296,1607.0
桃園,近畿日本鉄道,名古屋線,34.663380000000004,136.477465,518.0
楠,近畿日本鉄道,名古屋線,34.904885,136.63117,1281.0
白子,近畿日本鉄道,名古屋線,34.83386,136.5895,11241.0
塩浜,近畿日本鉄道,名古屋線,34.9331375,136.6222175,6592.0
新正,近畿日本鉄道,名古屋線,34.95638333333333,136.61843000000002,1470.0
江戸橋,近畿日本鉄道,名古屋線,34.74444,136.51402000000002,5650.0
伊勢若松,近畿日本鉄道,名古屋線,34.869495,136.61678999999998,1688.0
鼓ヶ浦,近畿日本鉄道,名古屋線,34.82619,136.58126,1005.0
磯山,近畿日本鉄道,名古屋線,34.812650000000005,136.568875,1144.0
豊津上野,近畿日本鉄道,名古屋線,34.785250000000005,136.54308500000002,991.0
北楠,近畿日本鉄道,名古屋線,34.9163,136.62481,1545.0
千代崎,近畿日本鉄道,名古屋線,34.85485,136.608355,2211.0
津,近畿日本鉄道,名古屋線,34.734415,136.51023,28852.0
平田町,近畿日本鉄道,鈴鹿線,34.87514,136.54238,4503.0
鈴鹿市,近畿日本鉄道,鈴鹿線,34.88391,136.58279,2835.0
三日市,近畿日本鉄道,鈴鹿線,34.88024,136.56223,1112.0
柳,近畿日本鉄道,鈴鹿線,34.871359999999996,136.59596499999998,188.0
多賀大社前,近江鉄道,多賀線,35.2264225,136.28413,110.0
高宮,近江鉄道,多賀線,35.23636333333334,136.26106666666666,1.0
八日市,近江鉄道,八日市線,35.114175,136.19454000000002,1.0
平田,近江鉄道,八日市線,35.110185,136.14664,131.0
太郎坊宮前,近江鉄道,八日市線,35.10854,136.183985,124.0
新八日市,近江鉄道,八日市線,35.110475,136.19208500000002,402.0
武佐,近江鉄道,八日市線,35.114869999999996,136.13064500000002,357.0
市辺,近江鉄道,八日市線,35.103840000000005,136.16562,177.0
近江八幡,近江鉄道,八日市線,35.122209999999995,136.10270500000001,2279.0
尼子,近江鉄道,本線,35.214025,136.24617999999998,222.0
長谷野,近江鉄道,本線,35.09558,136.18757,68.0
水口松尾,近江鉄道,本線,34.980225000000004,136.18644,49.0
桜川,近江鉄道,本線,35.064945,136.18758,102.0
河辺の森,近江鉄道,本線,35.135325,136.196225,13.0
朝日野,近江鉄道,本線,35.03154,136.20572666666666,24.0
豊郷,近江鉄道,本線,35.197905,136.230985,137.0
高宮,近江鉄道,本線,35.236215,136.260605,135.0
彦根,近江鉄道,本線,35.272175,136.26369499999998,1141.0
朝日大塚,近江鉄道,本線,35.05099,136.19358,65.0
彦根口,近江鉄道,本線,35.25519,136.25859,414.0
米原,近江鉄道,本線,35.3139805,136.290247,155.0
京セラ前,近江鉄道,本線,35.074839999999995,136.180405,45.0
鳥居本,近江鉄道,本線,35.284774999999996,136.28303499999998,85.0
日野,近江鉄道,本線,35.012249999999995,136.21946,402.0
愛知川,近江鉄道,本線,35.17616,136.21341999999999,326.0
五箇荘,近江鉄道,本線,35.15484,136.19725,95.0
大学前,近江鉄道,本線,35.087779999999995,136.184675,65.0
水口,近江鉄道,本線,34.97425,136.17683,302.0
水口石橋,近江鉄道,本線,34.97001,136.17161,50.0
貴生川,近江鉄道,本線,34.952635,136.153215,589.0
水口城南,近江鉄道,本線,34.96813,136.16559999999998,387.0
フジテック前,近江鉄道,本線,35.29425,136.28538500000002,200.0
日向前田,九州旅客鉄道,吉都線,31.90864,131.040345,2.0
小林,九州旅客鉄道,吉都線,31.99072,130.976095,344.0
えびの上江,九州旅客鉄道,吉都線,32.03561,130.85003,2.0
西小林,九州旅客鉄道,吉都線,32.00947,130.921795,2.0
高原,九州旅客鉄道,吉都線,31.926845,130.99900000000002,2.0
広原,九州旅客鉄道,吉都線,31.957785,130.984875,2.0
えびの,九州旅客鉄道,吉都線,32.04227,130.81617,2.0
えびの飯野,九州旅客鉄道,吉都線,32.030325000000005,130.871195,2.0
鶴丸,九州旅客鉄道,吉都線,32.03058,130.74871000000002,2.0
京町温泉,九州旅客鉄道,吉都線,32.045415,130.767925,2.0
吉松,九州旅客鉄道,吉都線,32.011865,130.738135,2.0
都城,九州旅客鉄道,吉都線,31.736600000000003,131.07401,1.0
日向庄内,九州旅客鉄道,吉都線,31.762124999999997,131.0615,2.0
高崎新田,九州旅客鉄道,吉都線,31.875884999999997,131.06265000000002,2.0
谷頭,九州旅客鉄道,吉都線,31.789195,131.054005,2.0
万ヶ塚,九州旅客鉄道,吉都線,31.817175,131.06395500000002,2.0
東高崎,九州旅客鉄道,吉都線,31.84097,131.06502,2.0
筑後吉井,九州旅客鉄道,久大線,33.340955,130.752825,398.0
日田,九州旅客鉄道,久大線,33.317885000000004,130.938135,528.0
向之原,九州旅客鉄道,久大線,33.19668,131.514065,551.0
南由布,九州旅客鉄道,久大線,33.24219,131.333355,2.0
杉河内,九州旅客鉄道,久大線,33.264340000000004,131.065455,2.0
天神山,九州旅客鉄道,久大線,33.187025,131.438905,2.0
小野屋,九州旅客鉄道,久大線,33.185165,131.452605,287.0
豊後国分,九州旅客鉄道,久大線,33.195080000000004,131.551265,271.0
恵良,九州旅客鉄道,久大線,33.25504,131.17442,2.0
筑後大石,九州旅客鉄道,久大線,33.347184999999996,130.8169,2.0
由布院,九州旅客鉄道,久大線,33.262451999999996,131.354916,433.0
庄内,九州旅客鉄道,久大線,33.1851,131.40191,2.0
光岡,九州旅客鉄道,久大線,33.327605,130.91992,2.0
南大分,九州旅客鉄道,久大線,33.21401,131.586285,490.0
古国府,九州旅客鉄道,久大線,33.22064,131.608305,422.0
豊後中川,九州旅客鉄道,久大線,33.284459999999996,131.005875,2.0
天ヶ瀬,九州旅客鉄道,久大線,33.25484333333333,131.02382,2.0
豊後森,九州旅客鉄道,久大線,33.28255,131.15569499999998,2.0
鬼瀬,九州旅客鉄道,久大線,33.19571500000001,131.48547000000002,2.0
引治,九州旅客鉄道,久大線,33.228995,131.183975,2.0
豊後中村,九州旅客鉄道,久大線,33.225785,131.20763499999998,2.0
田主丸,九州旅客鉄道,久大線,33.3388,130.69245,526.0
豊後三芳,九州旅客鉄道,久大線,33.305904999999996,130.951505,2.0
北山田,九州旅客鉄道,久大線,33.28202,131.100925,2.0
野矢,九州旅客鉄道,久大線,33.240385,131.2519,2.0
うきは,九州旅客鉄道,久大線,33.33504,130.78915,2.0
湯平,九州旅客鉄道,久大線,33.19734,131.354305,2.0
賀来,九州旅客鉄道,久大線,33.21307,131.56262,416.0
大分,九州旅客鉄道,久大線,33.233135000000004,131.606425,1.0
大分,九州旅客鉄道,久大線,33.2326,131.606695,1.0
夜明,九州旅客鉄道,久大線,33.31959500000001,130.866215,2.0
御井,九州旅客鉄道,久大線,33.312664999999996,130.56266,2.0
南久留米,九州旅客鉄道,久大線,33.302795,130.532165,365.0
筑後草野,九州旅客鉄道,久大線,33.322105,130.64218,2.0
善導寺,九州旅客鉄道,久大線,33.320025,130.60874,255.0
久留米大学前,九州旅客鉄道,久大線,33.31079666666667,130.54761,1088.0
久留米,九州旅客鉄道,久大線,33.3207285,130.501372,1.0
田吉,九州旅客鉄道,宮崎空港線,31.878915,131.43041,2.0
宮崎空港,九州旅客鉄道,宮崎空港線,31.872477500000002,131.43958,458.0
出水,九州旅客鉄道,九州新幹線,32.0894275,130.3584575,889.0
新八代,九州旅客鉄道,九州新幹線,32.517586,130.635033,1.0
新水俣,九州旅客鉄道,九州新幹線,32.210645,130.428765,368.0
鹿児島中央,九州旅客鉄道,九州新幹線,31.583775000000003,130.54102999999998,1.0
川内,九州旅客鉄道,九州新幹線,31.813515000000002,130.312405,1.0
船尾,九州旅客鉄道,後藤寺線,33.630210000000005,130.767435,2.0
上三緒,九州旅客鉄道,後藤寺線,33.62223,130.71387,2.0
下鴨生,九州旅客鉄道,後藤寺線,33.614734999999996,130.728345,2.0
筑前庄内,九州旅客鉄道,後藤寺線,33.616344999999995,130.73865,2.0
田川後藤寺,九州旅客鉄道,後藤寺線,33.630359999999996,130.80021499999998,1.0
新飯塚,九州旅客鉄道,後藤寺線,33.644275,130.694315,1.0
土井,九州旅客鉄道,香椎線,33.635115,130.466135,1385.0
西戸崎,九州旅客鉄道,香椎線,33.650635,130.35807,691.0
須恵,九州旅客鉄道,香椎線,33.59683,130.49806999999998,618.0
和白,九州旅客鉄道,香椎線,33.688795,130.42973,1384.0
舞松原,九州旅客鉄道,香椎線,33.64469,130.45559500000002,798.0
香椎神宮,九州旅客鉄道,香椎線,33.649654999999996,130.452685,837.0
新原,九州旅客鉄道,香椎線,33.57918,130.508785,253.0
伊賀,九州旅客鉄道,香椎線,33.62105,130.47364499999998,824.0
酒殿,九州旅客鉄道,香椎線,33.602615,130.486335,662.0
長者原,九州旅客鉄道,香椎線,33.61249,130.47781500000002,1.0
雁ノ巣,九州旅客鉄道,香椎線,33.683775,130.402795,325.0
宇美,九州旅客鉄道,香椎線,33.569230000000005,130.513415,1649.0
香椎,九州旅客鉄道,香椎線,33.65952,130.444265,1.0
海ノ中道,九州旅客鉄道,香椎線,33.66413,130.361465,446.0
須恵中央,九州旅客鉄道,香椎線,33.5875225,130.505045,1323.0
奈多,九州旅客鉄道,香椎線,33.686495,130.41223000000002,922.0
三間坂,九州旅客鉄道,佐世保線,33.19473,129.94778,289.0
高橋,九州旅客鉄道,佐世保線,33.208095,130.042375,2.0
北方,九州旅客鉄道,佐世保線,33.21622,130.08327,2.0
永尾,九州旅客鉄道,佐世保線,33.193394999999995,129.980435,2.0
大町,九州旅客鉄道,佐世保線,33.212445,130.10648,2.0
日宇,九州旅客鉄道,佐世保線,33.15742,129.758305,366.0
武雄温泉,九州旅客鉄道,佐世保線,33.196690000000004,130.023475,1264.0
三河内,九州旅客鉄道,佐世保線,33.150306666666665,129.8290966666667,2.0
有田,九州旅客鉄道,佐世保線,33.18374,129.88186000000002,645.0
大塔,九州旅客鉄道,佐世保線,33.149215,129.78205,416.0
上有田,九州旅客鉄道,佐世保線,33.19031,129.90532000000002,2.0
佐世保,九州旅客鉄道,佐世保線,33.16372333333333,129.72663333333333,2600.0
早岐,九州旅客鉄道,佐世保線,33.133895,129.7993125,1417.0
三角,九州旅客鉄道,三角線,32.60788,130.46973,257.0
緑川,九州旅客鉄道,三角線,32.69393,130.63135,2.0
住吉,九州旅客鉄道,三角線,32.7020375,130.5979325,2.0
網田,九州旅客鉄道,三角線,32.66744666666667,130.54684,2.0
赤瀬,九州旅客鉄道,三角線,32.65315333333333,130.51011000000003,2.0
石打ダム,九州旅客鉄道,三角線,32.64241666666666,130.50681666666665,2.0
肥後長浜,九州旅客鉄道,三角線,32.69074666666666,130.56065,2.0
波多浦,九州旅客鉄道,三角線,32.61524,130.48792666666668,2.0
宇土,九州旅客鉄道,三角線,32.694348500000004,130.6690705,1.0
門司,九州旅客鉄道,山陽線,33.90434666666667,130.93240666666668,1.0
下関,九州旅客鉄道,山陽線,33.94915,130.92160666666666,1.0
南鹿児島,九州旅客鉄道,指宿枕崎線,31.5548,130.5436,1174.0
入野,九州旅客鉄道,指宿枕崎線,31.204325,130.51875,2.0
谷山,九州旅客鉄道,指宿枕崎線,31.52709,130.51898,2640.0
開聞,九州旅客鉄道,指宿枕崎線,31.203975,130.534735,2.0
枕崎,九州旅客鉄道,指宿枕崎線,31.272109999999998,130.29943,2.0
平川,九州旅客鉄道,指宿枕崎線,31.449170000000002,130.51384000000002,781.0
瀬々串,九州旅客鉄道,指宿枕崎線,31.421219999999998,130.522735,2.0
白沢,九州旅客鉄道,指宿枕崎線,31.25687,130.35665,2.0
松ヶ浦,九州旅客鉄道,指宿枕崎線,31.25889,130.394665,2.0
生見,九州旅客鉄道,指宿枕崎線,31.307265,130.577605,2.0
前之浜,九州旅客鉄道,指宿枕崎線,31.343035,130.557285,2.0
指宿,九州旅客鉄道,指宿枕崎線,31.236966666666664,130.64261,412.0
薩摩塩屋,九州旅客鉄道,指宿枕崎線,31.25714,130.37619999999998,2.0
坂之上,九州旅客鉄道,指宿枕崎線,31.50054,130.50766,1843.0
中名,九州旅客鉄道,指宿枕崎線,31.39378,130.53505,2.0
頴娃大川,九州旅客鉄道,指宿枕崎線,31.257945,130.41342500000002,2.0
水成川,九州旅客鉄道,指宿枕崎線,31.257155,130.43056,2.0
頴娃,九州旅客鉄道,指宿枕崎線,31.229035,130.50038,2.0
喜入,九州旅客鉄道,指宿枕崎線,31.371335000000002,130.53883,458.0
薩摩今和泉,九州旅客鉄道,指宿枕崎線,31.290685,130.59894500000001,400.0
郡元,九州旅客鉄道,指宿枕崎線,31.565640000000002,130.541985,886.0
鹿児島中央,九州旅客鉄道,指宿枕崎線,31.58428333333333,130.54206,1.0
宮ヶ浜,九州旅客鉄道,指宿枕崎線,31.27714,130.61971499999999,2.0
東開聞,九州旅客鉄道,指宿枕崎線,31.200935,130.549875,2.0
五位野,九州旅客鉄道,指宿枕崎線,31.475234999999998,130.50408499999998,344.0
西大山,九州旅客鉄道,指宿枕崎線,31.190305000000002,130.576445,2.0
薩摩板敷,九州旅客鉄道,指宿枕崎線,31.262275000000002,130.33108,2.0
鹿児島中央,九州旅客鉄道,指宿枕崎線,31.584279999999996,130.54173,1.0
慈眼寺,九州旅客鉄道,指宿枕崎線,31.516910000000003,130.50583,1261.0
御領,九州旅客鉄道,指宿枕崎線,31.25208,130.468655,2.0
石垣,九州旅客鉄道,指宿枕崎線,31.259355,130.445205,2.0
薩摩川尻,九州旅客鉄道,指宿枕崎線,31.19478,130.565525,2.0
大山,九州旅客鉄道,指宿枕崎線,31.194985000000003,130.599255,2.0
宇宿,九州旅客鉄道,指宿枕崎線,31.54406333333333,130.53622,1003.0
山川,九州旅客鉄道,指宿枕崎線,31.211615000000002,130.63,2.0
西頴娃,九州旅客鉄道,指宿枕崎線,31.24117,130.49141500000002,2.0
枝光,九州旅客鉄道,鹿児島線,33.879185,130.81286,2880.0
八幡,九州旅客鉄道,鹿児島線,33.86926666666667,130.79514666666668,5432.0
小倉,九州旅客鉄道,鹿児島線,33.886743333333335,130.88300666666666,27129.0
折尾,九州旅客鉄道,鹿児島線,33.8638625,130.71467,1.0
門司港,九州旅客鉄道,鹿児島線,33.944055,130.960505,3746.0
九州工大前,九州旅客鉄道,鹿児島線,33.90046,130.84016,3525.0
折尾,九州旅客鉄道,鹿児島線,33.86390333333333,130.71162666666666,12541.0
小倉,九州旅客鉄道,鹿児島線,33.886923333333336,130.88325333333333,1.0
黒崎,九州旅客鉄道,鹿児島線,33.866915,130.76656,11938.0
門司,九州旅客鉄道,鹿児島線,33.90425666666667,130.93276666666665,5120.0
水巻,九州旅客鉄道,鹿児島線,33.852585000000005,130.696285,1662.0
陣原,九州旅客鉄道,鹿児島線,33.868185,130.74349,1864.0
小森江,九州旅客鉄道,鹿児島線,33.916515000000004,130.938875,1195.0
陣原,九州旅客鉄道,鹿児島線,33.867990000000006,130.74343499999998,1.0
スペースワールド,九州旅客鉄道,鹿児島線,33.8712575,130.8061875,1786.0
西小倉,九州旅客鉄道,鹿児島線,33.88872,130.87406,4313.0
戸畑,九州旅客鉄道,鹿児島線,33.897414999999995,130.820915,7830.0
海老津,九州旅客鉄道,鹿児島線,33.840072,130.623532,3036.0
笹原,九州旅客鉄道,鹿児島線,33.55326,130.44869,4689.0
西牟田,九州旅客鉄道,鹿児島線,33.246265,130.5010175,347.0
荒木,九州旅客鉄道,鹿児島線,33.276849999999996,130.50269500000002,1127.0
瀬高,九州旅客鉄道,鹿児島線,33.156985000000006,130.48544500000003,790.0
遠賀川,九州旅客鉄道,鹿児島線,33.84675,130.67363,2020.0
東福間,九州旅客鉄道,鹿児島線,33.773855,130.510705,2213.0
千鳥,九州旅客鉄道,鹿児島線,33.749055,130.47635,3134.0
吉塚,九州旅客鉄道,鹿児島線,33.6072,130.423705,13125.0
南福岡,九州旅客鉄道,鹿児島線,33.54217,130.460355,8457.0
赤間,九州旅客鉄道,鹿児島線,33.80823,130.56959,6814.0
田代,九州旅客鉄道,鹿児島線,33.38453,130.524855,486.0
福工大前,九州旅客鉄道,鹿児島線,33.69867333333333,130.44073666666665,9757.0
水城,九州旅客鉄道,鹿児島線,33.5178075,130.4902025,1724.0
二日市,九州旅客鉄道,鹿児島線,33.494455,130.518925,5910.0
羽犬塚,九州旅客鉄道,鹿児島線,33.20993000000001,130.49765,2395.0
大野城,九州旅客鉄道,鹿児島線,33.524964999999995,130.48007,6935.0
春日,九州旅客鉄道,鹿児島線,33.534665000000004,130.46938,3888.0
九産大前,九州旅客鉄道,鹿児島線,33.67373,130.441155,6090.0
肥前旭,九州旅客鉄道,鹿児島線,33.34977,130.4961,617.0
香椎,九州旅客鉄道,鹿児島線,33.659735,130.44402,11321.0
竹下,九州旅客鉄道,鹿児島線,33.56864,130.43165499999998,7441.0
教育大前,九州旅客鉄道,鹿児島線,33.808175,130.59031,1916.0
博多,九州旅客鉄道,鹿児島線,33.589995,130.42056000000002,93823.0
都府楼南,九州旅客鉄道,鹿児島線,33.503142000000004,130.506732,1035.0
千早,九州旅客鉄道,鹿児島線,33.64941,130.44068,11603.0
古賀,九州旅客鉄道,鹿児島線,33.73256,130.46689,5674.0
弥生が丘,九州旅客鉄道,鹿児島線,33.402774,130.528656,1108.0
箱崎,九州旅客鉄道,鹿児島線,33.618025,130.42655000000002,5228.0
けやき台,九州旅客鉄道,鹿児島線,33.434115000000006,130.53336000000002,1009.0
南瀬高,九州旅客鉄道,鹿児島線,33.133365,130.471215,2.0
福間,九州旅客鉄道,鹿児島線,33.763755,130.48721,7646.0
原田,九州旅客鉄道,鹿児島線,33.451771666666666,130.53933833333335,3176.0
東郷,九州旅客鉄道,鹿児島線,33.794489999999996,130.52884,4387.0
天拝山,九州旅客鉄道,鹿児島線,33.48161,130.53058,2294.0
鳥栖,九州旅客鉄道,鹿児島線,33.37421666666666,130.51984333333334,5557.0
小川,九州旅客鉄道,鹿児島線,32.60128,130.69409000000002,965.0
松橋,九州旅客鉄道,鹿児島線,32.65253,130.67049,1426.0
荒尾,九州旅客鉄道,鹿児島線,32.994524999999996,130.43472500000001,835.0
渡瀬,九州旅客鉄道,鹿児島線,33.099554999999995,130.4601,2.0
木葉,九州旅客鉄道,鹿児島線,32.916365,130.62634500000001,322.0
長洲,九州旅客鉄道,鹿児島線,32.935145000000006,130.455595,556.0
田原坂,九州旅客鉄道,鹿児島線,32.899335,130.6532,2.0
川尻,九州旅客鉄道,鹿児島線,32.743520000000004,130.67972,826.0
植木,九州旅客鉄道,鹿児島線,32.88007,130.68089500000002,627.0
肥後伊倉,九州旅客鉄道,鹿児島線,32.913264999999996,130.586775,2.0
上熊本,九州旅客鉄道,鹿児島線,32.817354,130.6990715,2364.0
崇城大学前,九州旅客鉄道,鹿児島線,32.830805,130.694935,1241.0
熊本,九州旅客鉄道,鹿児島線,32.78931,130.68865666666667,11469.0
南荒尾,九州旅客鉄道,鹿児島線,32.96583,130.43313,297.0
有佐,九州旅客鉄道,鹿児島線,32.562839999999994,130.67034999999998,780.0
吉野,九州旅客鉄道,鹿児島線,33.07553,130.46640000000002,401.0
大野下,九州旅客鉄道,鹿児島線,32.92165,130.50243,285.0
新八代,九州旅客鉄道,鹿児島線,32.51809333333333,130.6341666666667,1441.0
千丁,九州旅客鉄道,鹿児島線,32.532615,130.64569,2.0
玉名,九州旅客鉄道,鹿児島線,32.925975,130.5487,2065.0
銀水,九州旅客鉄道,鹿児島線,33.05491,130.46090500000003,605.0
西里,九州旅客鉄道,鹿児島線,32.85458,130.70015999999998,724.0
大牟田,九州旅客鉄道,鹿児島線,33.02939,130.443845,1911.0
八代,九州旅客鉄道,鹿児島線,32.50463,130.6207433333333,1533.0
川内,九州旅客鉄道,鹿児島線,31.81363,130.3122,2170.0
鹿児島,九州旅客鉄道,鹿児島線,31.60228,130.56438400000002,1392.0
東市来,九州旅客鉄道,鹿児島線,31.654995,130.34789,270.0
市来,九州旅客鉄道,鹿児島線,31.689929999999997,130.30291499999998,298.0
木場茶屋,九州旅客鉄道,鹿児島線,31.76612,130.30807,2.0
串木野,九州旅客鉄道,鹿児島線,31.721836000000003,130.274434,659.0
薩摩松元,九州旅客鉄道,鹿児島線,31.60538,130.43884500000001,477.0
湯之元,九州旅客鉄道,鹿児島線,31.673920000000003,130.336805,2.0
上伊集院,九州旅客鉄道,鹿児島線,31.59416,130.45882749999998,1487.0
伊集院,九州旅客鉄道,鹿児島線,31.63016,130.39580999999998,2008.0
隈之城,九州旅客鉄道,鹿児島線,31.792575,130.307075,341.0
原町,九州旅客鉄道,篠栗線,33.611855,130.471205,1334.0
篠栗,九州旅客鉄道,篠栗線,33.623925,130.52405,4101.0
筑前山手,九州旅客鉄道,篠栗線,33.622195000000005,130.55721499999999,2.0
九郎原,九州旅客鉄道,篠栗線,33.592420000000004,130.612425,2.0
長者原,九州旅客鉄道,篠栗線,33.613820000000004,130.47826333333333,3383.0
筑前大分,九州旅客鉄道,篠栗線,33.59015,130.62984,482.0
柚須,九州旅客鉄道,篠栗線,33.613330000000005,130.44416,3619.0
城戸南蔵院前,九州旅客鉄道,篠栗線,33.61796,130.57209,2.0
門松,九州旅客鉄道,篠栗線,33.620495,130.495945,1214.0
桂川,九州旅客鉄道,篠栗線,33.584649999999996,130.66256,1.0
川棚,九州旅客鉄道,大村線,33.06837,129.864085,704.0
彼杵,九州旅客鉄道,大村線,33.03982,129.91468500000002,2.0
南風崎,九州旅客鉄道,大村線,33.08707999999999,129.80099666666666,2.0
岩松,九州旅客鉄道,大村線,32.89057,129.98127,2.0
小串郷,九州旅客鉄道,大村線,33.063725000000005,129.834425,2.0
諏訪,九州旅客鉄道,大村線,32.923910225,129.960084535,2.0
千綿,九州旅客鉄道,大村線,33.01307,129.945605,2.0
大村,九州旅客鉄道,大村線,32.91143,129.962265,1927.0
ハウステンボス,九州旅客鉄道,大村線,33.09223,129.796285,821.0
松原,九州旅客鉄道,大村線,32.977455,129.94632000000001,2.0
竹松,九州旅客鉄道,大村線,32.94006,129.95303,978.0
諫早,九州旅客鉄道,大村線,32.851235,130.041505,1.0
九大学研都市,九州旅客鉄道,筑肥線,33.578,130.258465,7302.0
波多江,九州旅客鉄道,筑肥線,33.56376,130.22634499999998,1999.0
今宿,九州旅客鉄道,筑肥線,33.579275,130.274175,4543.0
周船寺,九州旅客鉄道,筑肥線,33.570724999999996,130.246395,4115.0
下山門,九州旅客鉄道,筑肥線,33.581723333333336,130.30800333333332,2474.0
姪浜,九州旅客鉄道,筑肥線,33.58358,130.325065,5083.0
福吉,九州旅客鉄道,筑肥線,33.501644999999996,130.080425,365.0
美咲が丘,九州旅客鉄道,筑肥線,33.55017,130.18581,822.0
上伊万里,九州旅客鉄道,筑肥線,33.270045,129.89254,2.0
和多田,九州旅客鉄道,筑肥線,33.437065000000004,129.980655,289.0
佐里,九州旅客鉄道,筑肥線,33.337645,129.978705,2.0
虹ノ松原,九州旅客鉄道,筑肥線,33.44099,130.016325,2.0
桃川,九州旅客鉄道,筑肥線,33.271834999999996,129.956665,2.0
唐津,九州旅客鉄道,筑肥線,33.4459225,129.9686975,1.0
鹿家,九州旅客鉄道,筑肥線,33.484405,130.04791999999998,2.0
東唐津,九州旅客鉄道,筑肥線,33.439485000000005,129.99708,634.0
加布里,九州旅客鉄道,筑肥線,33.54382,130.17677500000002,542.0
大入,九州旅客鉄道,筑肥線,33.50881,130.105585,2.0
駒鳴,九州旅客鉄道,筑肥線,33.31942,129.97239,2.0
西相知,九州旅客鉄道,筑肥線,33.34749,129.99045,2.0
大川野,九州旅客鉄道,筑肥線,33.3074,129.976665,2.0
筑前前原,九州旅客鉄道,筑肥線,33.557015,130.19917500000003,5509.0
一貴山,九州旅客鉄道,筑肥線,33.534305,130.168315,365.0
肥前久保,九州旅客鉄道,筑肥線,33.355720000000005,130.00015000000002,2.0
肥前長野,九州旅客鉄道,筑肥線,33.295645,129.97099500000002,2.0
金石原,九州旅客鉄道,筑肥線,33.265420000000006,129.93502999999998,2.0
浜崎,九州旅客鉄道,筑肥線,33.446889999999996,130.03731,474.0
筑前深江,九州旅客鉄道,筑肥線,33.515429999999995,130.139805,719.0
山本,九州旅客鉄道,筑肥線,33.39326,129.98127,1.0
伊万里,九州旅客鉄道,筑肥線,33.271910000000005,129.876315,2.0
折尾,九州旅客鉄道,筑豊線,33.863865000000004,130.71232,1.0
筑前垣生,九州旅客鉄道,筑豊線,33.818445,130.702375,307.0
若松,九州旅客鉄道,筑豊線,33.900324999999995,130.80519,942.0
本城,九州旅客鉄道,筑豊線,33.87504666666667,130.72299333333333,915.0
藤ノ木,九州旅客鉄道,筑豊線,33.893195,130.781875,2.0
中間,九州旅客鉄道,筑豊線,33.82776,130.709355,1341.0
奥洞海,九州旅客鉄道,筑豊線,33.888915,130.76407999999998,309.0
東水巻,九州旅客鉄道,筑豊線,33.84016,130.70817,326.0
東水巻,九州旅客鉄道,筑豊線,33.84017,130.70802333333333,1.0
鞍手,九州旅客鉄道,筑豊線,33.79804,130.699415,562.0
二島,九州旅客鉄道,筑豊線,33.889436,130.748796,1204.0
飯塚,九州旅客鉄道,筑豊線,33.62847,130.68956,805.0
勝野,九州旅客鉄道,筑豊線,33.72834,130.716,2.0
鯰田,九州旅客鉄道,筑豊線,33.669325,130.70312,319.0
浦田,九州旅客鉄道,筑豊線,33.65577,130.699305,2.0
直方,九州旅客鉄道,筑豊線,33.74863,130.724495,2674.0
新入,九州旅客鉄道,筑豊線,33.763385,130.7142,309.0
筑前植木,九州旅客鉄道,筑豊線,33.77708,130.70803999999998,442.0
小竹,九州旅客鉄道,筑豊線,33.697215,130.71032,567.0
筑前内野,九州旅客鉄道,筑豊線,33.539945,130.63811,2.0
上穂波,九州旅客鉄道,筑豊線,33.566915,130.645275,2.0
筑前山家,九州旅客鉄道,筑豊線,33.477365000000006,130.574095,2.0
天道,九州旅客鉄道,筑豊線,33.605365,130.67786,459.0
吉野ヶ里公園,九州旅客鉄道,長崎線,33.324575,130.39886,1090.0
肥前麓,九州旅客鉄道,長崎線,33.36582,130.477515,466.0
中原,九州旅客鉄道,長崎線,33.34629,130.44011999999998,977.0
伊賀屋,九州旅客鉄道,長崎線,33.290255,130.33684,2.0
神埼,九州旅客鉄道,長崎線,33.31596,130.37492500000002,1308.0
久保田,九州旅客鉄道,長崎線,33.25569,130.229425,491.0
佐賀,九州旅客鉄道,長崎線,33.264125,130.29737,9404.0
鍋島,九州旅客鉄道,長崎線,33.25905,130.265695,436.0
牛津,九州旅客鉄道,長崎線,33.24783,130.20132999999998,621.0
肥前竜王,九州旅客鉄道,長崎線,33.146585,130.12039,2.0
肥前白石,九州旅客鉄道,長崎線,33.186925,130.1359,611.0
長崎,九州旅客鉄道,長崎線,32.752423789999995,129.86869375499998,6245.0
肥前七浦,九州旅客鉄道,長崎線,33.07087,130.14526,2.0
肥前長田,九州旅客鉄道,長崎線,32.8618,130.08004499999998,2.0
小長井,九州旅客鉄道,長崎線,32.92418,130.186465,2.0
肥前古賀,九州旅客鉄道,長崎線,32.798315,129.95151750000002,261.0
大草,九州旅客鉄道,長崎線,32.860175,129.93904,2.0
高田,九州旅客鉄道,長崎線,32.81939,129.86965,502.0
西浦上,九州旅客鉄道,長崎線,32.79026,129.85901,740.0
西諫早,九州旅客鉄道,長崎線,32.839635,130.02133,929.0
長与,九州旅客鉄道,長崎線,32.818920000000006,129.879515,1522.0
東諫早,九州旅客鉄道,長崎線,32.852795,130.06161,2.0
喜々津,九州旅客鉄道,長崎線,32.832705000000004,129.98649,1473.0
道ノ尾,九州旅客鉄道,長崎線,32.804203333333334,129.8530066666667,984.0
多良,九州旅客鉄道,長崎線,33.02521,130.17611,2.0
東園,九州旅客鉄道,長崎線,32.846975,129.96246000000002,2.0
肥前飯田,九州旅客鉄道,長崎線,33.055695,130.158785,2.0
湯江,九州旅客鉄道,長崎線,32.904835,130.14068,2.0
長里,九州旅客鉄道,長崎線,32.9153,130.16550999999998,2.0
肥前浜,九州旅客鉄道,長崎線,33.09541,130.11679,2.0
肥前鹿島,九州旅客鉄道,長崎線,33.113395,130.09805,826.0
小江,九州旅客鉄道,長崎線,32.891295,130.112235,2.0
本川内,九州旅客鉄道,長崎線,32.83188,129.89996,2.0
肥前大浦,九州旅客鉄道,長崎線,32.97507,130.207265,2.0
浦上,九州旅客鉄道,長崎線,32.765445,129.86328500000002,2270.0
市布,九州旅客鉄道,長崎線,32.819135,129.96615500000001,2.0
現川,九州旅客鉄道,長崎線,32.79113,129.926365,654.0
鬼塚,九州旅客鉄道,唐津線,33.421105,129.98711,2.0
相知,九州旅客鉄道,唐津線,33.34695,130.01974,2.0
岩屋,九州旅客鉄道,唐津線,33.330805,130.038495,2.0
多久,九州旅客鉄道,唐津線,33.288380000000004,130.09627999999998,2.0
小城,九州旅客鉄道,唐津線,33.2855,130.19906500000002,924.0
中多久,九州旅客鉄道,唐津線,33.28333,130.11229,354.0
厳木,九州旅客鉄道,唐津線,33.3234,130.06029999999998,2.0
西唐津,九州旅客鉄道,唐津線,33.46149,129.95788,380.0
東多久,九州旅客鉄道,唐津線,33.28541,130.143165,2.0
本牟田部,九州旅客鉄道,唐津線,33.372115,129.99669,2.0
城野,九州旅客鉄道,日田彦山線,33.858045,130.88637,1.0
志井,九州旅客鉄道,日田彦山線,33.803875000000005,130.87480499999998,2.0
志井公園,九州旅客鉄道,日田彦山線,33.81827,130.879725,764.0
石田,九州旅客鉄道,日田彦山線,33.832184999999996,130.88914499999998,364.0
宝珠山,九州旅客鉄道,日田彦山線,33.37885,130.87947,2.0
採銅所,九州旅客鉄道,日田彦山線,33.707350000000005,130.853135,2.0
池尻,九州旅客鉄道,日田彦山線,33.613005,130.80580500000002,2.0
大鶴,九州旅客鉄道,日田彦山線,33.36698,130.88548,2.0
西添田,九州旅客鉄道,日田彦山線,33.573375,130.84715,2.0
添田,九州旅客鉄道,日田彦山線,33.567319999999995,130.85652,2.0
呼野,九州旅客鉄道,日田彦山線,33.75505,130.86194,2.0
一本松,九州旅客鉄道,日田彦山線,33.656009999999995,130.835505,246.0
豊前川崎,九州旅客鉄道,日田彦山線,33.596745,130.822115,2.0
香春,九州旅客鉄道,日田彦山線,33.665935000000005,130.8469,2.0
今山,九州旅客鉄道,日田彦山線,33.345145,130.876935,2.0
石原町,九州旅客鉄道,日田彦山線,33.784665000000004,130.866005,2.0
豊前桝田,九州旅客鉄道,日田彦山線,33.5358,130.86223999999999,2.0
筑前岩屋,九州旅客鉄道,日田彦山線,33.43078,130.88155999999998,2.0
彦山,九州旅客鉄道,日田彦山線,33.50073,130.86903999999998,2.0
大行司,九州旅客鉄道,日田彦山線,33.3969,130.87474,2.0
田川伊田,九州旅客鉄道,日田彦山線,33.642158,130.81786200000002,491.0
南宮崎,九州旅客鉄道,日南線,31.895290000000003,131.42286000000001,1.0
日向北方,九州旅客鉄道,日南線,31.48305,131.24311,2.0
福島今町,九州旅客鉄道,日南線,31.45686,131.20339,2.0
伊比井,九州旅客鉄道,日南線,31.71106,131.45614,2.0
大堂津,九州旅客鉄道,日南線,31.55691,131.382105,2.0
北郷,九州旅客鉄道,日南線,31.678359999999998,131.373885,2.0
内之田,九州旅客鉄道,日南線,31.642493333333334,131.37257333333332,2.0
子供の国,九州旅客鉄道,日南線,31.80737,131.456965,2.0
谷之口,九州旅客鉄道,日南線,31.533385,131.34463,2.0
小内海,九州旅客鉄道,日南線,31.73799,131.46606,2.0
南方,九州旅客鉄道,日南線,31.859445,131.434525,2.0
青島,九州旅客鉄道,日南線,31.799525,131.46702,2.0
大隅夏井,九州旅客鉄道,日南線,31.469765000000002,131.13642,2.0
油津,九州旅客鉄道,日南線,31.586866666666666,131.39604333333332,2.0
折生迫,九州旅客鉄道,日南線,31.789395,131.46748,2.0
木花,九州旅客鉄道,日南線,31.83111,131.437035,292.0
南郷,九州旅客鉄道,日南線,31.535915000000003,131.3721,2.0
榎原,九州旅客鉄道,日南線,31.534685,131.306545,2.0
曽山寺,九州旅客鉄道,日南線,31.81336,131.44834500000002,2.0
飫肥,九州旅客鉄道,日南線,31.62722,131.36165499999998,326.0
日向大束,九州旅客鉄道,日南線,31.510604999999998,131.248725,2.0
日南,九州旅客鉄道,日南線,31.603025000000002,131.38124,2.0
串間,九州旅客鉄道,日南線,31.462805,131.23065,2.0
内海,九州旅客鉄道,日南線,31.758505,131.46741,2.0
運動公園,九州旅客鉄道,日南線,31.81969,131.44249000000002,2.0
志布志,九州旅客鉄道,日南線,31.47314,131.09852999999998,2.0
福島高松,九州旅客鉄道,日南線,31.45854,131.178305,2.0
坂ノ市,九州旅客鉄道,日豊線,33.23670666666666,131.75149666666667,1046.0
臼杵,九州旅客鉄道,日豊線,33.118565000000004,131.80764499999998,538.0
大在,九州旅客鉄道,日豊線,33.24391,131.720525,1789.0
佐志生,九州旅客鉄道,日豊線,33.17494333333333,131.81770666666668,2.0
熊崎,九州旅客鉄道,日豊線,33.1356175,131.7876675,325.0
幸崎,九州旅客鉄道,日豊線,33.233695,131.79525,2.0
下ノ江,九州旅客鉄道,日豊線,33.15868333333333,131.81111333333334,2.0
下曽根,九州旅客鉄道,日豊線,33.8321425,130.934925,5638.0
小倉,九州旅客鉄道,日豊線,33.886615,130.8827325,1.0
西小倉,九州旅客鉄道,日豊線,33.88849333333334,130.87418666666667,1.0
南小倉,九州旅客鉄道,日豊線,33.870101999999996,130.864802,4390.0
朽網,九州旅客鉄道,日豊線,33.807680000000005,130.954795,1838.0
安部山公園,九州旅客鉄道,日豊線,33.844005,130.904435,2071.0
暘谷,九州旅客鉄道,日豊線,33.37016,131.53063,770.0
高城,九州旅客鉄道,日豊線,33.242845,131.65572,1407.0
東中津,九州旅客鉄道,日豊線,33.587715,131.23897499999998,2.0
宇島,九州旅客鉄道,日豊線,33.621285,131.12648000000002,1398.0
豊前松江,九州旅客鉄道,日豊線,33.622445,131.09536500000002,2.0
新田原,九州旅客鉄道,日豊線,33.695125000000004,131.008335,678.0
大神,九州旅客鉄道,日豊線,33.383605,131.57540999999998,394.0
西屋敷,九州旅客鉄道,日豊線,33.50443,131.42954500000002,2.0
苅田,九州旅客鉄道,日豊線,33.78513,130.9787225,1906.0
築城,九州旅客鉄道,日豊線,33.673085,131.03796499999999,546.0
日出,九州旅客鉄道,日豊線,33.368975000000006,131.543105,474.0
牧,九州旅客鉄道,日豊線,33.237125,131.63785000000001,617.0
豊前善光寺,九州旅客鉄道,日豊線,33.56644,131.32298500000002,2.0
天津,九州旅客鉄道,日豊線,33.56464,131.293005,2.0
中津,九州旅客鉄道,日豊線,33.599194999999995,131.190925,2114.0
別府,九州旅客鉄道,日豊線,33.27947,131.500255,4385.0
椎田,九州旅客鉄道,日豊線,33.65344,131.05791,628.0
西大分,九州旅客鉄道,日豊線,33.24465,131.58315,420.0
南行橋,九州旅客鉄道,日豊線,33.71631,130.98121,1192.0
三毛門,九州旅客鉄道,日豊線,33.614365,131.15715,2.0
豊前長洲,九州旅客鉄道,日豊線,33.564641111111115,131.38323666666668,2.0
亀川,九州旅客鉄道,日豊線,33.3306925,131.49301,1240.0
別府大学,九州旅客鉄道,日豊線,33.313265,131.49935499999998,1511.0
杵築,九州旅客鉄道,日豊線,33.411010000000005,131.57567999999998,683.0
吉富,九州旅客鉄道,日豊線,33.604915000000005,131.17352,268.0
立石,九州旅客鉄道,日豊線,33.482084,131.477226,2.0
小波瀬西工大前,九州旅客鉄道,日豊線,33.752872499999995,130.97181999999998,1541.0
立石,九州旅客鉄道,日豊線,33.48177,131.47706499999998,2.0
東別府,九州旅客鉄道,日豊線,33.26775,131.510525,2.0
中山香,九州旅客鉄道,日豊線,33.448685,131.50573500000002,2.0
豊後豊岡,九州旅客鉄道,日豊線,33.361959999999996,131.50141000000002,331.0
宇佐,九州旅客鉄道,日豊線,33.531445000000005,131.41231,320.0
行橋,九州旅客鉄道,日豊線,33.72875,130.970255,4790.0
鶴崎,九州旅客鉄道,日豊線,33.242815,131.686925,1540.0
今津,九州旅客鉄道,日豊線,33.571985,131.26785999999998,2.0
柳ヶ浦,九州旅客鉄道,日豊線,33.56503,131.36270000000002,491.0
高鍋,九州旅客鉄道,日豊線,32.122655,131.53393499999999,712.0
日向新富,九州旅客鉄道,日豊線,32.07231,131.501595,2.0
美々津,九州旅客鉄道,日豊線,32.325919999999996,131.60231,2.0
市棚,九州旅客鉄道,日豊線,32.7283,131.71024,2.0
肥前山口,九州旅客鉄道,佐世保線,33.21911,130.16111,1.0
上岡,九州旅客鉄道,日豊線,32.95626,131.861595,2.0
狩生,九州旅客鉄道,日豊線,33.015365,131.90481499999999,2.0
宗太郎,九州旅客鉄道,日豊線,32.786339999999996,131.706665,2.0
北延岡,九州旅客鉄道,日豊線,32.630865,131.69018,2.0
財光寺,九州旅客鉄道,日豊線,32.40585,131.62762500000002,246.0
佐土原,九州旅客鉄道,日豊線,32.022525,131.47742,944.0
東都農,九州旅客鉄道,日豊線,32.29025,131.582035,2.0
宮崎神宮,九州旅客鉄道,日豊線,31.938685,131.430635,443.0
門川,九州旅客鉄道,日豊線,32.477540000000005,131.654105,368.0
宮崎,九州旅客鉄道,日豊線,31.915815000000002,131.432005,4206.0
南日向,九州旅客鉄道,日豊線,32.369915000000006,131.62781,2.0
直川,九州旅客鉄道,日豊線,32.898664999999994,131.779515,2.0
重岡,九州旅客鉄道,日豊線,32.840305,131.715595,2.0
旭ヶ丘,九州旅客鉄道,日豊線,32.52847,131.68134,2.0
津久見,九州旅客鉄道,日豊線,33.07289,131.863715,652.0
日代,九州旅客鉄道,日豊線,33.06613,131.91869,2.0
日向住吉,九州旅客鉄道,日豊線,31.99105,131.45788,832.0
日向長井,九州旅客鉄道,日豊線,32.66423,131.70014,2.0
海崎,九州旅客鉄道,日豊線,32.99608,131.88792999999998,2.0
佐伯,九州旅客鉄道,日豊線,32.972645,131.901815,576.0
都農,九州旅客鉄道,日豊線,32.25108,131.568455,272.0
浅海井,九州旅客鉄道,日豊線,33.04357,131.91921,2.0
南延岡,九州旅客鉄道,日豊線,32.559635,131.676885,736.0
蓮ヶ池,九州旅客鉄道,日豊線,31.960075,131.44272999999998,2.0
上臼杵,九州旅客鉄道,日豊線,33.11250333333333,131.79296333333335,297.0
川南,九州旅客鉄道,日豊線,32.192359999999994,131.55330500000002,264.0
土々呂,九州旅客鉄道,日豊線,32.50783,131.675125,2.0
直見,九州旅客鉄道,日豊線,32.92821,131.807745,2.0
北川,九州旅客鉄道,日豊線,32.69043,131.69765999999998,2.0
延岡,九州旅客鉄道,日豊線,32.5899625,131.6725275,828.0
日向市,九州旅客鉄道,日豊線,32.425920000000005,131.62783000000002,1079.0
国分,九州旅客鉄道,日豊線,31.743815,130.76360666666667,2422.0
北永野田,九州旅客鉄道,日豊線,31.782075,130.87456,2.0
財部,九州旅客鉄道,日豊線,31.728775,130.99153,2.0
姶良,九州旅客鉄道,日豊線,31.715245,130.623235,918.0
餅原,九州旅客鉄道,日豊線,31.757025,131.132665,2.0
重富,九州旅客鉄道,日豊線,31.702785,130.61413499999998,431.0
五十市,九州旅客鉄道,日豊線,31.71848,131.033905,2.0
清武,九州旅客鉄道,日豊線,31.858894999999997,131.388895,521.0
北俣,九州旅客鉄道,日豊線,31.744979999999998,130.96003000000002,2.0
加治木,九州旅客鉄道,日豊線,31.73925,130.67067500000002,1604.0
霧島神宮,九州旅客鉄道,日豊線,31.818202499999998,130.8369925,2.0
青井岳,九州旅客鉄道,日豊線,31.827873333333333,131.21810333333335,2.0
西都城,九州旅客鉄道,日豊線,31.72333,131.05700000000002,382.0
田野,九州旅客鉄道,日豊線,31.83839,131.30428,440.0
隼人,九州旅客鉄道,日豊線,31.743765,130.74021,1429.0
加納,九州旅客鉄道,日豊線,31.876265,131.406525,2.0
山之口,九州旅客鉄道,日豊線,31.782545,131.15281,2.0
大隅大川原,九州旅客鉄道,日豊線,31.772785,130.92428,2.0
竜ヶ水,九州旅客鉄道,日豊線,31.647435,130.60417999999999,2.0
錦江,九州旅客鉄道,日豊線,31.73688,130.6533,432.0
三股,九州旅客鉄道,日豊線,31.73376,131.11944499999998,2.0
帖佐,九州旅客鉄道,日豊線,31.72696,130.63281,1369.0
日向沓掛,九州旅客鉄道,日豊線,31.841500000000003,131.34436,2.0
植村,九州旅客鉄道,肥薩線,31.890034999999997,130.724195,2.0
吉尾,九州旅客鉄道,肥薩線,32.33084,130.600305,2.0
球泉洞,九州旅客鉄道,肥薩線,32.26796,130.60816499999999,2.0
葉木,九州旅客鉄道,肥薩線,32.41035,130.64540499999998,2.0
真幸,九州旅客鉄道,肥薩線,32.074525,130.72911,2.0
海路,九州旅客鉄道,肥薩線,32.349385,130.619235,2.0
白石,九州旅客鉄道,肥薩線,32.30574,130.60836,2.0
人吉,九州旅客鉄道,肥薩線,32.216139999999996,130.753815,2.0
大隅横川,九州旅客鉄道,肥薩線,31.90622,130.702925,2.0
大畑,九州旅客鉄道,肥薩線,32.164965,130.787805,2.0
段,九州旅客鉄道,肥薩線,32.468180000000004,130.645765,2.0
矢岳,九州旅客鉄道,肥薩線,32.10427,130.76981999999998,2.0
坂本,九州旅客鉄道,肥薩線,32.435125,130.65795500000002,2.0
栗野,九州旅客鉄道,肥薩線,31.95051,130.72334999999998,2.0
瀬戸石,九州旅客鉄道,肥薩線,32.371565000000004,130.64609,2.0
鎌瀬,九州旅客鉄道,肥薩線,32.39105,130.65462,2.0
西人吉,九州旅客鉄道,肥薩線,32.22842666666667,130.72587666666666,2.0
那良口,九州旅客鉄道,肥薩線,32.243645,130.66746,2.0
渡,九州旅客鉄道,肥薩線,32.23668,130.69484,2.0
一勝地,九州旅客鉄道,肥薩線,32.250215,130.652495,2.0
中福良,九州旅客鉄道,肥薩線,31.813895000000002,130.733025,2.0
霧島温泉,九州旅客鉄道,肥薩線,31.8681475,130.7343725,2.0
表木山,九州旅客鉄道,肥薩線,31.796084999999998,130.745175,2.0
嘉例川,九州旅客鉄道,肥薩線,31.826895,130.72289999999998,2.0
日当山,九州旅客鉄道,肥薩線,31.763525,130.74974,2.0
敷戸,九州旅客鉄道,豊肥線,33.188105,131.615125,851.0
中判田,九州旅客鉄道,豊肥線,33.163762000000006,131.6387,687.0
竹中,九州旅客鉄道,豊肥線,33.121285,131.64946500000002,2.0
大分大学前,九州旅客鉄道,豊肥線,33.176785,131.619405,1031.0
滝尾,九州旅客鉄道,豊肥線,33.2094,131.62311499999998,316.0
犬飼,九州旅客鉄道,豊肥線,33.077955,131.636635,256.0
赤水,九州旅客鉄道,豊肥線,32.91315,130.99288,2.0
豊後荻,九州旅客鉄道,豊肥線,32.926919999999996,131.29762,2.0
阿蘇,九州旅客鉄道,豊肥線,32.937425000000005,131.08011,2.0
市ノ川,九州旅客鉄道,豊肥線,32.92807,131.00761,2.0
いこいの村,九州旅客鉄道,豊肥線,32.936555,131.09443,2.0
滝水,九州旅客鉄道,豊肥線,32.9333,131.242835,2.0
内牧,九州旅客鉄道,豊肥線,32.94214,131.043755,2.0
瀬田,九州旅客鉄道,豊肥線,32.872600000000006,130.913915,2.0
宮地,九州旅客鉄道,豊肥線,32.937034999999995,131.11807,2.0
玉来,九州旅客鉄道,豊肥線,32.947755,131.376035,2.0
立野,九州旅客鉄道,豊肥線,32.877629999999996,130.96514,2.0
三重町,九州旅客鉄道,豊肥線,32.983645,131.583945,681.0
波野,九州旅客鉄道,豊肥線,32.938495,131.19525499999997,2.0
肥後大津,九州旅客鉄道,豊肥線,32.87749,130.86631,2170.0
豊後竹田,九州旅客鉄道,豊肥線,32.97094,131.38983000000002,297.0
原水,九州旅客鉄道,豊肥線,32.870639999999995,130.829055,878.0
朝地,九州旅客鉄道,豊肥線,33.00426,131.43222,2.0
緒方,九州旅客鉄道,豊肥線,32.97106,131.47675500000003,2.0
菅尾,九州旅客鉄道,豊肥線,33.01442,131.616675,2.0
豊後清川,九州旅客鉄道,豊肥線,32.972840000000005,131.52215,2.0
水前寺,九州旅客鉄道,豊肥線,32.796883333333334,130.72974333333335,2816.0
武蔵塚,九州旅客鉄道,豊肥線,32.850005,130.770295,1913.0
平成,九州旅客鉄道,豊肥線,32.781515,130.70342499999998,998.0
東海学園前,九州旅客鉄道,豊肥線,32.811274999999995,130.74266,1479.0
南熊本,九州旅客鉄道,豊肥線,32.78512,130.711775,973.0
新水前寺,九州旅客鉄道,豊肥線,32.79331,130.725855,4364.0
竜田口,九州旅客鉄道,豊肥線,32.82049666666666,130.74700666666666,627.0
三里木,九州旅客鉄道,豊肥線,32.86169666666667,130.79644666666667,481.0
光の森,九州旅客鉄道,豊肥線,32.857420000000005,130.786035,2156.0
河原町,熊本市,幹線,32.794885,130.70084500000002,438.0
水道町,熊本市,幹線,32.802365,130.712525,2993.0
慶徳校前,熊本市,幹線,32.797045,130.7025,578.0
熊本城・市役所前,熊本市,幹線,32.80386,130.707985,1812.0
花畑町,熊本市,幹線,32.801595,130.70593,1184.0
辛島町,熊本市,幹線,32.798935,130.705075,3803.0
呉服町,熊本市,幹線,32.79555,130.6969,735.0
通町筋,熊本市,幹線,32.80318,130.70988,5162.0
熊本駅前,熊本市,幹線,32.79007,130.69027,1.0
祇園橋,熊本市,幹線,32.792805,130.694815,314.0
健軍交番前,熊本市,健軍線,32.77946,130.757465,508.0
動植物園入口,熊本市,健軍線,32.78041,130.75495,582.0
八丁馬場,熊本市,健軍線,32.783645,130.74222,420.0
商業高校前,熊本市,健軍線,32.785515000000004,130.738905,758.0
健軍町,熊本市,健軍線,32.778355000000005,130.76107000000002,4968.0
市立体育館前（県庁通）,熊本市,健軍線,32.788345,130.734775,805.0
健軍校前,熊本市,健軍線,32.78184,130.751105,882.0
神水交差点,熊本市,健軍線,32.78357,130.74557,877.0
水前寺公園,熊本市,健軍線,32.79002,130.732235,813.0
県立体育館前,熊本市,上熊本線,32.815055,130.69907,148.0
蔚山町,熊本市,上熊本線,32.803799999999995,130.697025,446.0
新町,熊本市,上熊本線,32.79959,130.6973375,724.0
段山町,熊本市,上熊本線,32.806595,130.69550500000003,691.0
上熊本,熊本市,上熊本線,32.817479000000006,130.69946199999998,1677.0
西辛島町,熊本市,上熊本線,32.79873,130.70217,323.0
本妙寺入口,熊本市,上熊本線,32.81375,130.69849,394.0
杉塘,熊本市,上熊本線,32.81049,130.69710500000002,189.0
洗馬橋,熊本市,上熊本線,32.799170000000004,130.69886,547.0
味噌天神前,熊本市,水前寺線,32.795815000000005,130.72342500000002,755.0
国府,熊本市,水前寺線,32.791855,130.729445,654.0
交通局前,熊本市,水前寺線,32.797745000000006,130.71982500000001,1278.0
新水前寺駅前,熊本市,水前寺線,32.79331,130.72727,4190.0
九品寺交差点,熊本市,水前寺線,32.800645,130.71653500000002,1652.0
二本木口,熊本市,田崎線,32.78694,130.689405,358.0
田崎橋,熊本市,田崎線,32.784895,130.68842,775.0
上熊本,熊本電気鉄道,菊池線,32.818560000000005,130.69981,484.0
坪井川公園,熊本電気鉄道,菊池線,32.82142,130.719055,145.0
黒石,熊本電気鉄道,菊池線,32.87044496,130.74218433,393.0
新須屋,熊本電気鉄道,菊池線,32.853869794999994,130.732388275,377.0
御代志,熊本電気鉄道,菊池線,32.885149999999996,130.75032,532.0
熊本高専前,熊本電気鉄道,菊池線,32.878212465000004,130.74628433,151.0
須屋,熊本電気鉄道,菊池線,32.858097325,130.73643951,214.0
再春医療センター前,熊本電気鉄道,菊池線,32.88093,130.74794,59.0
韓々坂,熊本電気鉄道,菊池線,32.824079999999995,130.70183,114.0
亀井,熊本電気鉄道,菊池線,32.837745,130.722295,181.0
八景水谷,熊本電気鉄道,菊池線,32.841274999999996,130.722985,195.0
打越,熊本電気鉄道,菊池線,32.82373,130.71382499999999,52.0
北熊本,熊本電気鉄道,菊池線,32.827605,130.72186499999998,420.0
三ツ石,熊本電気鉄道,菊池線,32.86389036,130.73831675,202.0
堀川,熊本電気鉄道,菊池線,32.849000000000004,130.72532999999999,395.0
池田,熊本電気鉄道,菊池線,32.827165,130.7064,57.0
藤崎宮前,熊本電気鉄道,藤崎線,32.80901,130.71325000000002,1716.0
黒髪町,熊本電気鉄道,藤崎線,32.81836,130.717245,319.0
御岳山,御岳登山鉄道,ケーブルカー,35.78963,139.153765,553.0
滝本,御岳登山鉄道,ケーブルカー,35.79603,139.16155,566.0
安東,広島高速交通,広島新交通1号線,34.47488,132.45349,6709.0
城北,広島高速交通,広島新交通1号線,34.40538,132.45895000000002,1851.0
大町,広島高速交通,広島新交通1号線,34.461515,132.47072,7656.0
上安,広島高速交通,広島新交通1号線,34.47571,132.44501,3902.0
西原,広島高速交通,広島新交通1号線,34.44333,132.47476999999998,6289.0
伴中央,広島高速交通,広島新交通1号線,34.455614999999995,132.40503999999999,1321.0
県庁前,広島高速交通,広島新交通1号線,34.39664,132.45814666666666,11941.0
毘沙門台,広島高速交通,広島新交通1号線,34.46945,132.46286666666666,3266.0
大塚,広島高速交通,広島新交通1号線,34.441805,132.40294,1328.0
本通,広島高速交通,広島新交通1号線,34.393465000000006,132.45708,18862.0
古市,広島高速交通,広島新交通1号線,34.457525000000004,132.475365,3528.0
牛田,広島高速交通,広島新交通1号線,34.41704,132.46464500000002,2058.0
長楽寺,広島高速交通,広島新交通1号線,34.472925000000004,132.43090999999998,2349.0
不動院前,広島高速交通,広島新交通1号線,34.42665,132.46906,3222.0
中筋,広島高速交通,広島新交通1号線,34.451765,132.47694,6840.0
広域公園前,広島高速交通,広島新交通1号線,34.43544,132.40012000000002,2029.0
祇園新橋北,広島高速交通,広島新交通1号線,34.4354,132.471065,3397.0
白島,広島高速交通,広島新交通1号線,34.410995,132.46281,2520.0
大原,広島高速交通,広島新交通1号線,34.46284,132.41233499999998,2390.0
伴,広島高速交通,広島新交通1号線,34.469885000000005,132.419185,2549.0
高取,広島高速交通,広島新交通1号線,34.47524,132.43840999999998,2241.0
広大附属学校前,広島電鉄,宇品線,34.37156,132.46460000000002,1608.0
広電本社前,広島電鉄,宇品線,34.377345,132.45834,2654.0
宇品四丁目,広島電鉄,宇品線,34.360150000000004,132.46410500000002,1584.0
市役所前,広島電鉄,宇品線,34.38577,132.45445,3009.0
御幸橋,広島電鉄,宇品線,34.375955000000005,132.459335,1044.0
日赤病院前,広島電鉄,宇品線,34.38074,132.455935,1996.0
袋町,広島電鉄,宇品線,34.391104999999996,132.456305,1738.0
広島港（宇品）,広島電鉄,宇品線,34.352695,132.45577500000002,1653.0
県病院前,広島電鉄,宇品線,34.3685,132.46486,2596.0
本通,広島電鉄,宇品線,34.39329,132.45704999999998,6634.0
海岸通,広島電鉄,宇品線,34.355145,132.463095,1399.0
宇品五丁目,広島電鉄,宇品線,34.357985,132.463915,1169.0
中電前,広島電鉄,宇品線,34.38914,132.455625,2392.0
宇品二丁目,広島電鉄,宇品線,34.36634,132.46465,1181.0
宇品三丁目,広島電鉄,宇品線,34.36414,132.46446,1483.0
皆実町六丁目,広島電鉄,宇品線,34.374145,132.46397,2692.0
元宇品口,広島電鉄,宇品線,34.35394,132.45971,964.0
鷹野橋,広島電鉄,宇品線,34.383449999999996,132.45403,2385.0
紙屋町東,広島電鉄,宇品線,34.394975,132.458305,1.0
紙屋町西,広島電鉄,宇品線,34.39532,132.45692,1.0
横川一丁目,広島電鉄,横川線,34.407105,132.45006999999998,844.0
別院前,広島電鉄,横川線,34.4046,132.449435,285.0
横川駅,広島電鉄,横川線,34.409605,132.45065,5637.0
寺町,広島電鉄,横川線,34.40081,132.44814,680.0
十日市町,広島電鉄,横川線,34.396865,132.44693,1493.0
比治山下,広島電鉄,皆実線,34.38704333333333,132.47114333333334,428.0
比治山橋,広島電鉄,皆実線,34.383295000000004,132.468865,660.0
的場町,広島電鉄,皆実線,34.393025,132.475275,540.0
南区役所前,広島電鉄,皆実線,34.380415,132.46713,1492.0
皆実町二丁目,広島電鉄,皆実線,34.377395,132.466015,704.0
皆実町六丁目,広島電鉄,皆実線,34.374635,132.464855,1061.0
段原一丁目,広島電鉄,皆実線,34.389963333333334,132.47360666666665,444.0
広電阿品,広島電鉄,宮島線,34.32156500000001,132.31438,2133.0
東高須,広島電鉄,宮島線,34.39186,132.420275,1329.0
広電西広島（己斐）,広島電鉄,宮島線,34.3967365,132.427773,1.0
阿品東,広島電鉄,宮島線,34.32697666666667,132.31844333333333,489.0
山陽女学園前,広島電鉄,宮島線,34.362030000000004,132.341315,2207.0
草津南,広島電鉄,宮島線,34.378095,132.39846999999997,1556.0
地御前,広島電鉄,宮島線,34.340885,132.32004999999998,685.0
井口,広島電鉄,宮島線,34.37175666666667,132.38585,1648.0
広電宮島口,広島電鉄,宮島線,34.312225,132.30427,3991.0
修大協創中高前,広島電鉄,宮島線,34.368185,132.374235,3193.0
広電廿日市,広島電鉄,宮島線,34.356975,132.33647000000002,2925.0
宮内,広島電鉄,宮島線,34.347584999999995,132.32524,1615.0
草津,広島電鉄,宮島線,34.381495,132.40392,2373.0
楽々園,広島電鉄,宮島線,34.364325,132.351985,5260.0
広電五日市,広島電鉄,宮島線,34.366505000000004,132.367885,5676.0
高須,広島電鉄,宮島線,34.389720000000004,132.41706333333335,2199.0
廿日市市役所前（平良）,広島電鉄,宮島線,34.35315,132.32992000000002,2429.0
宮島ボートレース場,広島電鉄,宮島線,34.314379763333335,132.3049722766667,1.0
JA広島病院前,広島電鉄,宮島線,34.34433,132.32272999999998,1085.0
古江,広島電鉄,宮島線,34.38621333333334,132.41145666666668,3800.0
商工センター入口,広島電鉄,宮島線,34.375479999999996,132.39201,4184.0
佐伯区役所前,広島電鉄,宮島線,34.365480000000005,132.361785,1848.0
江波,広島電鉄,江波線,34.372209999999995,132.435815,1414.0
舟入川口町,広島電鉄,江波線,34.379665,132.43919,1663.0
舟入町,広島電鉄,江波線,34.38940333333333,132.44503,1539.0
舟入幸町,広島電鉄,江波線,34.383355,132.44128,1021.0
舟入南,広島電鉄,江波線,34.374965,132.43722,1527.0
舟入本町,広島電鉄,江波線,34.385805,132.44278500000001,1574.0
土橋,広島電鉄,江波線,34.39451,132.446335,1.0
白島,広島電鉄,白島線,34.404065,132.46569499999998,1335.0
家庭裁判所前,広島電鉄,白島線,34.401315,132.46587499999998,223.0
八丁堀,広島電鉄,白島線,34.395264999999995,132.46402,1.0
縮景園前,広島電鉄,白島線,34.39944,132.465305,423.0
女学院前,広島電鉄,白島線,34.398155,132.464905,213.0
八丁堀,広島電鉄,白島線,34.393815000000004,132.4631,1919.0
西観音町,広島電鉄,本線,34.39394,132.43686,993.0
的場町,広島電鉄,本線,34.39322,132.47463,1466.0
小網町,広島電鉄,本線,34.394454999999994,132.44449500000002,845.0
胡町,広島電鉄,本線,34.393296666666664,132.4652,2839.0
天満町,広島電鉄,本線,34.39515,132.44104,1373.0
本川町,広島電鉄,本線,34.396785,132.450495,1544.0
十日市町,広島電鉄,本線,34.397279999999995,132.4477,1.0
福島町,広島電鉄,本線,34.39483,132.43406,1024.0
観音町,広島電鉄,本線,34.395545,132.43871000000001,1004.0
銀山町,広島電鉄,本線,34.393163333333334,132.46723333333333,2343.0
原爆ドーム前,広島電鉄,本線,34.39608,132.453845,1899.0
広島駅,広島電鉄,本線,34.396330000000006,132.475435,18496.0
猿猴橋町,広島電鉄,本線,34.395255,132.47596,1635.0
稲荷町,広島電鉄,本線,34.392625,132.47113000000002,1473.0
立町,広島電鉄,本線,34.394324999999995,132.460975,3956.0
津軽尾上,弘南鉄道,弘南線,40.613905,140.57610499999998,318.0
黒石,弘南鉄道,弘南線,40.648345,140.591025,1289.0
館田,弘南鉄道,弘南線,40.58514,140.5387,128.0
平賀,弘南鉄道,弘南線,40.58497,140.561085,702.0
弘前,弘南鉄道,弘南線,40.598555,140.48584,2191.0
尾上高校前,弘南鉄道,弘南線,40.62665333333333,140.57702666666668,151.0
田舎館,弘南鉄道,弘南線,40.63687,140.57126499999998,134.0
新里,弘南鉄道,弘南線,40.58739,140.52005,53.0
弘前東高前,弘南鉄道,弘南線,40.592005,140.48909500000002,198.0
境松,弘南鉄道,弘南線,40.64886,140.575765,38.0
運動公園前,弘南鉄道,弘南線,40.5894,140.50302,179.0
柏農高校前,弘南鉄道,弘南線,40.601865000000004,140.56445,146.0
弘高下,弘南鉄道,大鰐線,40.592974999999996,140.46825,70.0
弘前学院大前,弘南鉄道,大鰐線,40.58337,140.47066,182.0
中央弘前,弘南鉄道,大鰐線,40.59916,140.47229,484.0
鯖石,弘南鉄道,大鰐線,40.535575,140.55274500000002,64.0
石川,弘南鉄道,大鰐線,40.55086666666667,140.54153666666667,128.0
津軽大沢,弘南鉄道,大鰐線,40.557835,140.516525,113.0
石川プール前,弘南鉄道,大鰐線,40.54317,140.550465,27.0
宿川原,弘南鉄道,大鰐線,40.52529,140.55759999999998,8.0
聖愛中高前,弘南鉄道,大鰐線,40.57716,140.47270500000002,143.0
千年,弘南鉄道,大鰐線,40.56729,140.480305,109.0
義塾高校前,弘南鉄道,大鰐線,40.555805,140.527525,111.0
松木平,弘南鉄道,大鰐線,40.560675,140.497145,15.0
大鰐,弘南鉄道,大鰐線,40.521815000000004,140.56693,208.0
小栗山,弘南鉄道,大鰐線,40.564295,140.48667,12.0
七里ヶ浜,江ノ島電鉄,江ノ島電鉄線,35.306292,139.510044,6270.0
鎌倉,江ノ島電鉄,江ノ島電鉄線,35.318295,139.55009,16421.0
柳小路,江ノ島電鉄,江ノ島電鉄線,35.327290000000005,139.485225,2268.0
鵠沼,江ノ島電鉄,江ノ島電鉄線,35.3214,139.48266999999998,3313.0
湘南海岸公園,江ノ島電鉄,江ノ島電鉄線,35.315200000000004,139.48332,1720.0
由比ヶ浜,江ノ島電鉄,江ノ島電鉄線,35.31288,139.54157500000002,1682.0
鎌倉高校前,江ノ島電鉄,江ノ島電鉄線,35.30676,139.500495,3356.0
和田塚,江ノ島電鉄,江ノ島電鉄線,35.3137425,139.54537,983.0
極楽寺,江ノ島電鉄,江ノ島電鉄線,35.309205000000006,139.52853,1361.0
石上,江ノ島電鉄,江ノ島電鉄線,35.33246,139.48558,611.0
稲村ヶ崎,江ノ島電鉄,江ノ島電鉄線,35.30433,139.522265,3395.0
長谷,江ノ島電鉄,江ノ島電鉄線,35.311325,139.53626,5420.0
藤沢,江ノ島電鉄,江ノ島電鉄線,35.337222,139.48723,17532.0
腰越,江ノ島電鉄,江ノ島電鉄線,35.30834,139.493355,2410.0
江ノ島,江ノ島電鉄,江ノ島電鉄線,35.311025,139.48762499999998,6146.0
栗熊,高松琴平電気鉄道,琴平線,34.234115,133.884485,460.0
岡田,高松琴平電気鉄道,琴平線,34.221275,133.86171000000002,410.0
仏生山,高松琴平電気鉄道,琴平線,34.28363,134.042725,2972.0
瓦町,高松琴平電気鉄道,琴平線,34.33882,134.05257999999998,11245.0
円座,高松琴平電気鉄道,琴平線,34.284459999999996,134.00907,1413.0
片原町,高松琴平電気鉄道,琴平線,34.346025,134.054395,4289.0
畑田,高松琴平電気鉄道,琴平線,34.259005,133.971565,221.0
陶,高松琴平電気鉄道,琴平線,34.250395,133.9479,464.0
高松築港,高松琴平電気鉄道,琴平線,34.35073,134.04935999999998,9726.0
挿頭丘,高松琴平電気鉄道,琴平線,34.261995,133.97938,296.0
三条,高松琴平電気鉄道,琴平線,34.319845,134.04951499999999,2403.0
滝宮,高松琴平電気鉄道,琴平線,34.24817,133.92239999999998,426.0
羽床,高松琴平電気鉄道,琴平線,34.2411,133.90183,99.0
岡本,高松琴平電気鉄道,琴平線,34.27032,133.98958,677.0
栗林公園,高松琴平電気鉄道,琴平線,34.32852,134.05108,2614.0
一宮,高松琴平電気鉄道,琴平線,34.283305,134.02221,1296.0
太田,高松琴平電気鉄道,琴平線,34.299085,134.04595,3654.0
羽間,高松琴平電気鉄道,琴平線,34.209575,133.84734500000002,210.0
琴電琴平,高松琴平電気鉄道,琴平線,34.191415,133.81892,906.0
榎井,高松琴平電気鉄道,琴平線,34.19433,133.82957,187.0
空港通り,高松琴平電気鉄道,琴平線,34.28118,134.03278999999998,1104.0
松島二丁目,高松琴平電気鉄道,志度線,34.340015,134.06473499999998,390.0
六万寺,高松琴平電気鉄道,志度線,34.342600000000004,134.134255,824.0
春日川,高松琴平電気鉄道,志度線,34.34101,134.08382999999998,414.0
原,高松琴平電気鉄道,志度線,34.326515,134.16367,144.0
琴電志度,高松琴平電気鉄道,志度線,34.32246000000001,134.17251,841.0
房前,高松琴平電気鉄道,志度線,34.332350000000005,134.15845000000002,71.0
潟元,高松琴平電気鉄道,志度線,34.341375,134.09819,1439.0
沖松島,高松琴平電気鉄道,志度線,34.341255000000004,134.072235,537.0
八栗,高松琴平電気鉄道,志度線,34.344633333333334,134.12244666666666,733.0
琴電屋島,高松琴平電気鉄道,志度線,34.341575,134.105825,581.0
塩屋,高松琴平電気鉄道,志度線,34.3356,134.155015,95.0
古高松,高松琴平電気鉄道,志度線,34.34092,134.11243000000002,544.0
瓦町,高松琴平電気鉄道,志度線,34.339585,134.053655,1.0
今橋,高松琴平電気鉄道,志度線,34.341665,134.05926,492.0
大町,高松琴平電気鉄道,志度線,34.33742,134.14146499999998,272.0
八栗新道,高松琴平電気鉄道,志度線,34.33687,134.147465,165.0
井戸,高松琴平電気鉄道,長尾線,34.266630000000006,134.1559,56.0
林道,高松琴平電気鉄道,長尾線,34.323325,134.07324,1542.0
農学部前,高松琴平電気鉄道,長尾線,34.27382,134.12578000000002,505.0
学園通り,高松琴平電気鉄道,長尾線,34.27059,134.13683500000002,1002.0
高田,高松琴平電気鉄道,長尾線,34.288615,134.11197,1103.0
花園,高松琴平電気鉄道,長尾線,34.33461,134.059115,767.0
西前田,高松琴平電気鉄道,長尾線,34.296025,134.104765,93.0
平木,高松琴平電気鉄道,長尾線,34.272185,134.1313,288.0
公文明,高松琴平電気鉄道,長尾線,34.266630000000006,134.16234,170.0
水田,高松琴平電気鉄道,長尾線,34.30305,134.092535,1007.0
長尾,高松琴平電気鉄道,長尾線,34.26665,134.16915999999998,804.0
元山,高松琴平電気鉄道,長尾線,34.31037499999999,134.083765,782.0
池戸,高松琴平電気鉄道,長尾線,34.27903,134.11944499999998,376.0
木太東口,高松琴平電気鉄道,長尾線,34.319720000000004,134.079585,859.0
白山,高松琴平電気鉄道,長尾線,34.26672,134.150455,192.0
高尾山,高尾登山電鉄,高尾鋼索線,35.631074999999996,139.256075,2179.0
清滝,高尾登山電鉄,高尾鋼索線,35.63108,139.26670000000001,2179.0
欅平,黒部峡谷鉄道,本線,36.696785999999996,137.658144,2600.0
黒薙,黒部峡谷鉄道,本線,36.78662,137.624845,100.0
宇奈月,黒部峡谷鉄道,本線,36.81516,137.58563,3800.0
鐘釣,黒部峡谷鉄道,本線,36.734404999999995,137.65134,900.0
トロッコ嵯峨,嵯峨野観光鉄道,嵯峨野観光線,35.018605,135.680445,2580.0
トロッコ保津峡,嵯峨野観光鉄道,嵯峨野観光線,35.026065,135.646235,13.0
トロッコ嵐山,嵯峨野観光鉄道,嵯峨野観光線,35.017015,135.67092,1890.0
トロッコ亀岡,嵯峨野観光鉄道,嵯峨野観光線,35.01305,135.60664500000001,4390.0
稲野,阪急電鉄,伊丹線,34.765065,135.41564,5817.0
新伊丹,阪急電鉄,伊丹線,34.772365,135.41559,5396.0
塚口,阪急電鉄,伊丹線,34.753139999999995,135.41624199999998,1.0
伊丹,阪急電鉄,伊丹線,34.779915,135.41373,17396.0
烏丸,阪急電鉄,京都線,35.0037,135.760375,57182.0
京都河原町,阪急電鉄,京都線,35.00378,135.76872333333333,48950.0
桂,阪急電鉄,京都線,34.97870333333333,135.70323666666664,33370.0
西院,阪急電鉄,京都線,35.003565,135.731965,29332.0
西京極,阪急電鉄,京都線,34.992536666666666,135.71851999999998,12961.0
大宮,阪急電鉄,京都線,35.0036525,135.749515,17920.0
水無瀬,阪急電鉄,京都線,34.877806666666665,135.66777,8023.0
茨木市,阪急電鉄,京都線,34.8165,135.57567999999998,44575.0
上牧,阪急電鉄,京都線,34.872035,135.6617,7600.0
高槻市,阪急電鉄,京都線,34.849824999999996,135.623145,46012.0
富田,阪急電鉄,京都線,34.83516,135.59271,13386.0
長岡天神,阪急電鉄,京都線,34.92488,135.69245999999998,18789.0
総持寺,阪急電鉄,京都線,34.827165,135.58479,10812.0
東向日,阪急電鉄,京都線,34.953914999999995,135.70466,9966.0
西向日,阪急電鉄,京都線,34.93994,135.70272,8163.0
洛西口,阪急電鉄,京都線,34.963620000000006,135.70314000000002,10051.0
南茨木,阪急電鉄,京都線,34.802189999999996,135.56501,31050.0
大山崎,阪急電鉄,京都線,34.89145,135.68155,4669.0
